datetime,city,state,country,shape,duration (seconds),duration (hours/min),comments,date posted,latitude,longitude
10/10/1949 20:30,san marcos,tx,us,cylinder,2700,45 minutes,This event took place in early fall around 1949-50. It occurred after a Boy Scout meeting in the Baptist Church. The Baptist Church sit,4/27/2004,29.8830556,-97.9411111
10/10/1949 21:00,lackland afb,tx,,light,7200,1-2 hrs,1949 Lackland AFB&#44 TX.  Lights racing across the sky &amp; making 90 degree turns on a dime.,12/16/2005,29.38421,-98.581082
10/10/1955 17:00,chester (uk/england),,gb,circle,20,20 seconds,Green/Orange circular disc over Chester&#44 England,1/21/2008,53.2,-2.916667
10/10/1956 21:00,edna,tx,us,circle,20,1/2 hour,My older brother and twin sister were leaving the only Edna theater at about 9 PM&#44...we had our bikes and I took a different route home,1/17/2004,28.9783333,-96.6458333
10/10/1960 20:00,kaneohe,hi,us,light,900,15 minutes,AS a Marine 1st Lt. flying an FJ4B fighter/attack aircraft on a solo night exercise&#44 I was at 50&#44000&#39 in a &quot;clean&quot; aircraft (no ordinan,1/22/2004,21.4180556,-157.8036111
10/10/1961 19:00,bristol,tn,us,sphere,300,5 minutes,My father is now 89 my brother 52 the girl with us now 51 myself 49 and the other fellow which worked with my father if he&#39s still livi,4/27/2007,36.5950000,-82.1888889
10/10/1965 21:00,penarth (uk/wales),,gb,circle,180,about 3 mins,penarth uk  circle  3mins  stayed 30ft above me for 3 mins slowly moved of and then with the blink of the eye the speed was unreal,2/14/2006,51.434722,-3.18
10/10/1965 23:45,norwalk,ct,us,disk,1200,20 minutes,A bright orange color changing to reddish color disk/saucer was observed hovering above power transmission lines.,10/2/1999,41.1175000,-73.4083333
10/10/1966 20:00,pell city,al,us,disk,180,3  minutes,Strobe Lighted disk shape object observed close&#44 at low speeds&#44 and low altitude in Oct 1966 in Pell City Alabama,3/19/2009,33.5861111,-86.2861111
10/10/1966 21:00,live oak,fl,us,disk,120,several minutes,Saucer zaps energy from powerline as my pregnant mother receives mental signals not to pass info,5/11/2005,30.2947222,-82.9841667
10/10/1968 13:00,hawthorne,ca,us,circle,300,5 min.,ROUND &#44 ORANGE &#44 WITH WHAT I WOULD SAY WAS POLISHED METAL OF SOME KIND AROUND THE EDGES .,10/31/2003,33.9163889,-118.3516667
10/10/1968 19:00,brevard,nc,us,fireball,180,3 minutes,silent red /orange mass of energy floated by three of us in western North Carolina in the 60s,6/12/2008,35.2333333,-82.7344444
10/10/1970 16:00,bellmore,ny,us,disk,1800,30 min.,silver disc seen by family and neighbors,5/11/2000,40.6686111,-73.5275000
10/10/1970 19:00,manchester,ky,us,unknown,180,3 minutes,Slow moving&#44 silent craft accelerated at an unbelievable angle and speed.,2/14/2008,37.1536111,-83.7619444
10/10/1971 21:00,lexington,nc,us,oval,30,30 seconds,green oval shaped light over my local church&#44power lines down..,2/14/2010,35.8238889,-80.2536111
10/10/1972 19:00,harlan county,ky,us,circle,1200,20minutes,On october 10&#44 1972 myself&#44my 5yrs.daughter&#442 neices and 2 nephews were playing tag in the back yard .When we looked over on the ridge,9/15/2005,36.8430556,-83.3219444
10/10/1972 22:30,west bloomfield,mi,us,disk,120,2 minutes,The UFO was so close&#44 my battery in the car went to zero amps&#44 stalling the engine&#44 turning off my lights and radio.,8/14/2007,42.5377778,-83.2330556
10/10/1973 19:00,niantic,ct,us,disk,1800,20-30 min,Oh&#44 what a night &#33  Two (2) saucer-shaped&#44 glowing green objects and one (1) brilliantly glowing sphere gliding over the lake.,9/24/2003,41.3252778,-72.1936111
10/10/1973 23:00,bermuda nas,,,light,20,20 sec.,saw fast moving blip on the radar scope thin went outside and saw it again.,1/11/2002,32.364167,-64.678611
10/10/1974 19:30,hudson,ma,us,other,2700,45 minutes,Not sure of the eact month or year of this sighting but it was in the fall of 74 or 75. Was walking home around dusk and saw a bright l,8/10/1999,42.3916667,-71.5666667
10/10/1974 21:30,cardiff (uk/wales),,gb,disk,1200,20 minutes,back in 1974 I was 19 at the time and  lived in a suburb of Cardiff Wales UK called Ely&#44 and in the distance there was a wood called Ca,2/1/2007,51.5,-3.2
10/10/1974 23:00,hudson,ks,us,light,1200,one hour?,The light chased us.,7/25/2004,38.1055556,-98.6597222
10/10/1975 17:00,north charleston,sc,us,light,360,5-6 minutes,Several Flashing UFO lights over Charleston Naval Base in S.C.,2/14/2008,32.8544444,-79.9750000
10/10/1976 20:30,washougal,wa,us,oval,60,1 minute,Three extremely large lights hanging above nearby trees.,2/7/2014,45.5827778,-122.3522222
10/10/1976 22:00,stoke mandeville (uk/england),,gb,cigar,3,3 seconds,White object over Buckinghamshire UK.,12/12/2009,51.783333,-.783333
10/10/1977 12:00,san antonio,tx,us,other,30,30 seconds,i was about six or seven and my family and me were sitting next to a window at home eating when a type of dark ball hit the screen wind,2/24/2005,29.4238889,-98.4933333
10/10/1977 22:00,louisville,ky,us,light,30,approx: 30 seconds,HBCCUFO CANADIAN REPORT:  Pilot Sighting Of Unusual Light.,3/17/2004,38.2541667,-85.7594444
10/10/1978 02:00,elmont,ny,us,rectangle,300,5min,A memory I will never forget that happened meny years ago.,2/1/2007,40.7008333,-73.7133333
10/10/1979 00:00,poughkeepsie,ny,us,chevron,900,15 minutes,1/4 moon-like&#44  its &#39chord&#39 or flat side parallel to horizon&#44  bright orange-red glow&#44  completely silent&#44 no features.,4/16/2005,41.7002778,-73.9213889
10/10/1979 22:00,saddle lake (canada),ab,,triangle,270,4.5 or more min.,Lights far above&#44  that glance; then flee from the celestrialhavens&#44 only to appear again.,1/19/2005,53.970571,-111.689885
10/10/1979 22:00,san diego,ca,us,oval,180,3 minutes,My 2nd UFO sighting&#44 October 1979,8/5/2001,32.7152778,-117.1563889
10/10/1979 22:00,security,co,us,unknown,1800,30mins.,very low clouds all different colors&#44search lights were seen shining down out of the clouds on the houses and streets. this event was s,1/28/1999,38.7583333,-104.7425000
10/10/1980 19:00,houston,tx,us,sphere,180,3 min,Sphere&#44 No lights&#44  moving through neighborhoods above tree tops&#44 over busy streets in Houston in 1980.,4/16/2005,29.7630556,-95.3630556
10/10/1980 22:00,dallas,tx,us,unknown,300,5 minutes,Strange shape shifting craft of pure light energy.,10/28/2002,32.7833333,-96.8000000
10/10/1980 23:30,manchester,nh,us,light,300,3 to 5 min,A red glowing sphere stopped and watched me.,11/21/2010,42.9955556,-71.4552778
10/10/1982 07:00,gisborne (new zealand),,,disk,120,2min,gisborne nz 1982 wainui beach to sponge bay,1/11/2002,-38.662334,178.017649
10/10/1984 05:00,houston,tx,us,circle,60,1 minute,2 experience with unkown,4/18/2012,29.7630556,-95.3630556
10/10/1984 12:00,traverse city,mi,us,other,120,couple minutes,translucent football seen over city airport,10/7/2003,44.7630556,-85.6205556
10/10/1984 22:00,white plains,ny,us,formation,20,15-20 seconds,Saw a hugh object in sky with lights intermittently placed not making any noise traveling north in the night sky.It had no real identif,8/10/1999,41.0338889,-73.7633333
10/10/1985 20:25,leeds (uk/england),,gb,triangle,600,10min,three light in the sky that led to a big black silent triangle shaped craft.,3/4/2003,53.8,-1.583333
10/10/1986 20:00,holmes/pawling,ny,,chevron,180,3 minutes,Football Field Sized Chevron with bright white lights on front&#44 moving slowly with absolutely no sound,10/8/2007,41.523427,-73.646795
10/10/1988 18:00,milwaukee,wi,us,triangle,600,10 minutes,A silent black triangular object with no lights moved over us as we walked our dog across a school playground.,8/7/2007,43.0388889,-87.9063889
10/10/1988 21:00,new gloucester,me,us,unknown,120,few minutes,I&#39m still afraid to look at the sky at night.,1/10/2009,43.9627778,-70.2830556
10/10/1988 22:00,boulder,co,us,light,60,1 minute,Three Stars Begin to Move Randomly&#44 Stop&#44 Change Direction&#44 Move Again&#44 And Then Vanish,7/16/2006,40.0150000,-105.2700000
10/10/1988 22:45,seattle (ballard area),wa,us,unknown,2,2 sec.,Two adult witnesses are stunned by the sound of an object that streaks above the home they are in.,4/27/2004,47.6063889,-122.3308333
10/10/1989 00:00,calabasas,ca,us,disk,300,approx 5 min,Unidentified object on Mulholland Highway.,12/14/2004,34.1577778,-118.6375000
10/10/1989 21:00,centralia,wa,us,triangle,60,1 minute,A huge triangularly shaped silent object that blotted out 25 degrees of the sky&#44 lighted by four glowing points.,4/27/2004,46.7163889,-122.9530556
10/10/1989 21:00,kranklin,ky,,triangle,180,3min,Triangle seen in franklin Ky - october 1989,5/11/2005,36.722263,-86.577218
10/10/1990 21:00,ashburn,ga,us,triangle,120,2 minutes,Translucent Craft that makes No Sound While Moving,10/8/2007,31.7058333,-83.6533333
10/10/1991 22:00,frisco,nc,us,unknown,1800,30 minutes,A friend and myself were standing on the shore of the Pamlico sound as we observed 4 objects moving in up and down motions for about 30,1/28/1999,35.2350000,-75.6288889
10/10/1991 22:00,harrisburg,pa,us,triangle,600,10 minutes,We observed 3 triangular shaped high speed objects&#33,5/9/2003,40.2736111,-76.8847222
10/10/1992 17:00,panama city,fl,us,formation,3600,1 hour(?),During a road trip to Panama City a friend and I witnessed a pair of luminous light formations appear and dissappear over the Gulf.,1/28/1999,30.1586111,-85.6602778
10/10/1992 18:00,stafford,tx,us,unknown,10,10 seconds,A man emerges from a beam of light that shines on a grassy field at night and he runs towards the Texas Instruments parking lot.,4/18/2012,29.6158333,-95.5575000
10/10/1992 20:15,seymour,tn,us,cigar,60,1min. 39s,Stationary Elongated UFO 200ft above vacant field with city lights on bottom,10/31/2008,35.8905556,-83.7247222
10/10/1992 22:00,weatherford,tx,us,unknown,30,30 seconds,Black or dark grey.  Too big&#44 too low&#44 too slow&#44 too quiet&#44 for a normal aircraft.,9/2/2005,32.7591667,-97.7969444
10/10/1993 03:00,zlatoust (russia),,,sphere,1200,20 minutes,I woke up at night and looked out the window near my bed. There was a huge sphere of shining light in front of our nine floor apartment,12/14/2004,55.183333,59.65
10/10/1993 22:00,peoria,il,us,light,8,8 seconds,Light over Peoria&#44 IL that moves slowly&#44 stops in mid-air&#44 hovers&#44 changes colors&#44 shoots in opposite direction and disappears.,10/11/2005,40.6936111,-89.5888889
10/10/1993 23:00,carthage,tn,us,other,60,less than 1 min,1 object with green and red lights,3/21/2003,36.2522222,-85.9516667
10/10/1994 15:00,mercedies,tx,,cigar,3600,1 hour,ufo chased by fighter jet over Rio Grande Valley. Seen on news,12/12/2011,26.149798,-97.913611
10/10/1994 18:30,burnt hills,ny,us,rectangle,120,2 minutes,Giant rectangular craft (resembling an upside-down aircraft carrier) over highway near Saratoga&#44 NY.,10/23/2013,42.9097222,-73.8955556
10/10/1994 22:00,pinebergen,ar,us,light,5,5 seconds,Round&#44 bright&#44 low flying object silently speeds West of Arkansas town at 11:30pm&#44 10/10/94.,2/18/2001,34.1027778,-91.9922222
10/10/1994 23:00,toronto (greater toronto area) (canada),on,ca,sphere,3600,~1 hour,Large rusty sphere,7/3/2013,43.666667,-79.416667
10/10/1996 03:20,higginsville,mo,us,triangle,3,3sec,illuminated triangular craft&#44 flying at high speed from South to North,2/16/2000,39.0725000,-93.7169444
10/10/1996 20:00,lake macquarie (nsw&#44 australia),,,light,300,5 min,RED LIGHT WITH OTHER RED FLASHING LIGHT&#44 ONE OBJECT,5/24/1999,-33.093373,151.588982
10/10/1996 22:00,charleston,sc,us,light,300,5 min,Flashing object above Charleston&#44 SC,11/26/2003,32.7763889,-79.9311111
10/10/1996 22:30,monroe county,oh,us,cylinder,60,1 minute,Looked like it went through the hillside,7/8/2004,39.4402778,-84.3622222
10/10/1997 17:00,mesa,az,us,sphere,30,30 seconds,A small dark purple quad-thruster craft hovering 200-300 feet in the sky. 500 Lights On Object0: Yes,2/14/2008,33.4222222,-111.8219444
10/10/1997 20:00,bonaire,ga,us,triangle,300,<5 minutes,Triangular Object Sighted at Very Close Range,2/1/2007,32.5436111,-83.5961111
10/10/1997 21:00,austin,mn,us,other,3600,1-hour,i was traveling northbound on state highway 105 approximately 8 miles south of Austin MN when an object came down directly above my car,1/28/1999,43.6666667,-92.9744444
10/10/1998 02:30,hollywood,ca,us,changing,300,5 minutes,I was standing outside on Sunset Blvd. at Vine and looked straight up which I normally do not do. I saw three bright white lights in a,11/1/1998,34.0983333,-118.3258333
10/10/1998 03:30,phoenix (north part),az,us,fireball,15,10 to 15 sec,bright green moving north to north east. it was bright green and kinda clear. quite fast too.,2/16/1999,33.4483333,-112.0733333
10/10/1998 13:15,elgin,il,us,cylinder,1800,30 +/- min,While looking up at sky I noticed a bright light hovering above the sky. then I noticed a jet airliner traveling in the same area and I,11/1/1998,42.0372222,-88.2811111
10/10/1998 17:30,las vegas,nv,us,cigar,600,10 minutes,White&#44 vertical cigar shape floating around in the eastern sky.,11/1/1998,36.1750000,-115.1363889
10/10/1998 17:30,las vegas,nv,us,circle,2700,45min.,Ufo sighting in las vegas near Area51,8/30/1999,36.1750000,-115.1363889
10/10/1998 20:30,nyc/westchester area,ny,,triangle,60,< 1 min,Lights over NYC,10/30/2006,40.935998,-73.901708
10/10/1998 20:30,spokane (about 30 miles sw of&#44i-90&#44 maybe mm 254),wa,us,triangle,600,10 minutes,Dark boomerange object seen for ten minutes hovering over the freeway with a bright light out the front that lit up the fields. No jet,8/5/2001,47.6588889,-117.4250000
10/10/1998 20:50,mooresville,nc,us,light,2,2 seconds,Star gazing in back yard with telescope and binos. Saw shooting star and an oblong shape of light.,11/1/1998,35.5847222,-80.8102778
10/10/1998 22:30,st. john&#39s (canada),nf,ca,egg,7200,2 hours,Started off as 3 points of intense yellow light in triangle formation - then grew larger - it becage a single egg shape - VERY bright.,12/2/2000,47.55,-52.666667
10/10/1998 23:50,delano,tn,us,fireball,15,15 seconds,I came home from work one night and I seen a bright fire like ball go across the top ofthe mountain and it was going fast then it stopp,3/21/2003,35.2650000,-84.5533333
10/10/1999 00:01,martinez,ca,us,changing,3600,1 hour,Bright objects&#44 red and green flashing lights (and a diffuse white light off to one side of the larger of the two objects)&#44 about 30 de,10/19/1999,38.0194444,-122.1330556
10/10/1999 04:00,kansas city,ks,us,unknown,600,5-10 min.,Orange object over city.,10/19/1999,39.1141667,-94.6272222
10/10/1999 06:00,dallas,tx,us,other,10,10 seconds,group of   twinkling lights at high altitude,11/20/2001,32.7833333,-96.8000000
10/10/1999 11:00,san diego,ca,us,fireball,3600,1 hour,At 10:45 in the morning&#44 my father and I noticed a small stationary object in the sky.,10/19/1999,32.7152778,-117.1563889
10/10/1999 12:40,kennewick,wa,us,sphere,45,45 secs,Standing outside saying goodby to family members and pointing to Chem-Trails,10/19/1999,46.2113889,-119.1361111
10/10/1999 20:35,hayward,ca,us,circle,90,60-90 sec,Many different colored glowing  objects,11/20/2001,37.6688889,-122.0797222
10/10/1999 21:00,rachel,nv,us,light,10800,3 hours,Bright lights with incredible agility seen from mailbox at Area 51 on UFO highway in Nevada for several hourse.,5/24/2005,37.6447222,-115.7427778
10/10/1999 21:30,humphrey,ne,us,sphere,300,5 min,Object moving erratically in sky stopped by spot light,2/14/2006,41.6916667,-97.4841667
10/10/1999 22:30,casey key (north end of),fl,,triangle,120,several minutes,A large trianglual shaped craft flew from horizon to horizon as observed from the stern deck of a motor vessel,9/19/2002,27.150053,-82.480653
10/10/1999 22:30,elgin,or,us,chevron,240,4 minutes,Object silently traveled north -northwest. It was V shaped with five orange lights on the perimeter and one white ligh in the center of,10/19/1999,45.5650000,-117.9163889
10/10/1999 23:45,lewiston,mi,us,oval,2700,45 minutes,Oval shaped with lights all around it in a haze with several smaller lights flying all around it.,10/19/1999,44.8838889,-84.3055556
10/10/2000 03:00,perryville,mo,us,oval,180,3 minutes,The craft was big&#44 orange&#44 and oval shaped.,12/2/2000,37.7241667,-89.8611111
10/10/2000 06:15,boynton beach,fl,us,other,10,10 seconds,Unusual light formation moving extremely fast across the sky.,12/2/2000,26.5250000,-80.0666667
10/10/2000 07:30,victoria (canada),bc,ca,cylinder,30,30seconds,Smooth Shiny Cylinder,12/2/2000,46.216667,-63.483333
10/10/2000 16:00,jueanu,wi,,triangle,45,45 seconds,5 bight light V shaped,12/2/2000,43.40555,-88.705104
10/10/2000 20:20,valley park area of st. louis,mo,,oval,15,15 seconds,Driving on Hyw.141 at Hyw. 44 and going East&#44 I witnessed to my right a glowing orb of light streak horizontally from East to West at a,12/2/2000,38.627003,-90.199404
10/10/2000 20:30,brinktown,mo,us,light,1800,30 min.,3 bright golden lights moving independently above the tree line flaring and fading intermittently for approx. 15 min.,12/2/2000,38.1266667,-92.0844444
10/10/2000 21:30,florence,ky,us,light,5,4-5 seconds,Two objects traveling side by side pass over&#44 as one begins to zig&#44 zag it&#39s path.,12/2/2000,38.9988889,-84.6266667
10/10/2000 21:30,seattle (west),wa,us,unknown,10,10 sec,Dark object in the shape of a (4) after dusk in West Seattle,2/11/2003,47.6063889,-122.3308333
10/10/2000 22:00,port orchard,wa,us,diamond,60,1min,One night my window started to flash,5/12/2009,47.5405556,-122.6350000
10/10/2001 03:00,rockwell city,ia,us,triangle,240,4 min.s,Large&#44silent&#44slow&#44low to the ground dull-black Triangle UFO with round red lights at it&#39s corners that were off .I drew it.,7/1/2002,42.3952778,-94.6336111
10/10/2001 04:33,sydney (nsw&#44 australia),,au,formation,180,3 minutes,formation and impact,11/20/2001,-33.861481,151.205475
10/10/2001 20:10,vancouver (canada),bc,ca,other,300,+5 minutes,I observed an green object significantly above a house with the address ((deleted)) Dunbar Street.,5/12/2011,49.25,-123.133333
10/10/2001 20:35,hayward,ca,us,circle,120,2/min.,FALLING STAR  STOPS  &#39SHOTS OUT  DOZENS OF RED POINTS OF LIGHT,11/20/2001,37.6688889,-122.0797222
10/10/2001 21:15,ottumwa,ia,us,rectangle,300,3-5 minutes,We saw a square object at night&#44  which had 2 blue &amp; 2 red lights at corners&#44 hovering in sky above us.,11/20/2001,41.0041667,-92.3736111
10/10/2001 21:30,fresno,ca,us,changing,900,15 min. apprx,Objects were sighted driving north on Highway 5 in California&#39s central valley after night fall&#44 not far past &quot;Kettleman/Fresno&quot; exit s,11/20/2001,36.7477778,-119.7713889
10/10/2001 22:00,phoenix,az,us,triangle,60,less then a minute,Triangle shaped craft spotted flying west to east over mid town Phoenix on 10/10/01 at 22:00 hours 4 light dim making no sounellow,11/20/2001,33.4483333,-112.0733333
10/10/2001 23:00,virginia beach,va,us,triangle,30,30 seconds,shaped like a stealth bomber (boomerang like&#44 but more triangluar) flat-black in color&#44 made a deep humming sound either really low to,7/26/2002,36.8527778,-75.9783333
10/10/2002 00:01,hayward,wi,us,flash,43,00:43,we saw pure a light that occasionaly split into 3 to 4 different lights.,10/15/2002,46.0130556,-91.4844444
10/10/2002 02:00,philomath,or,us,unknown,5,about5seconds,i watched on the portland news that the space shuttle would be visiable and went to philomath oregon to what was known to be the apple,10/15/2002,44.5402778,-123.3663889
10/10/2002 04:00,adelaide (pt. wakefield) (south australia),,au,circle,600,10 mins,one light became 3,10/28/2002,-34.928661,138.598633
10/10/2002 06:00,seattle,wa,us,sphere,90,90 seconds,Light falls from sky,10/15/2002,47.6063889,-122.3308333
10/10/2002 19:45,victoria (canada),bc,ca,unknown,120,2 minutes approx,bright white light with black outline around it moving soundlessly and slowly from north banking east and disappearing upward.,10/15/2002,46.216667,-63.483333
10/10/2002 20:30,cincinnati,oh,us,other,1800,30 minutes,Large octagon blue lights on rim red center light hovers over downtown Cincinnati thursday October 10.,10/15/2002,39.1619444,-84.4569444
10/10/2002 21:00,portland,or,us,circle,120,2min,The LIGHT is the TRUTH&#33,12/16/2005,45.5236111,-122.6750000
10/10/2003 09:00,new buffulo,mi,,light,120,2 minute,Craft that suddenly vanishes and another one that shows up and does strange things at high speeds,5/24/2005,41.79393,-86.743915
10/10/2003 12:00,alhambra,ca,us,oval,300,5 min,3 Black ovals in the sky and a floating movie camera,1/17/2004,34.0952778,-118.1261111
10/10/2003 18:00,indianapolis,in,us,sphere,1800,30 minutes,Sphere shape object with flashing bright white lights,10/15/2003,39.7683333,-86.1580556
10/10/2003 19:15,centreville,va,us,other,600,10 minutes,Aliens check out local high school football game.,10/15/2003,38.8402778,-77.4291667
10/10/2003 20:05,grand view,id,us,light,15,12-15 seconds,Bright light above Mt. Home AFB,10/15/2003,42.9897222,-116.0925000
10/10/2003 20:25,temperance,mi,us,oval,18000,over 5 hours,pulsating green white and red object in the northwest sky at 45degrees,10/31/2003,41.7791667,-83.5688889
10/10/2003 21:10,crescent beach,sc,us,formation,37800,1 1/2 hr.,For two consecutive nights&#44 we watched a pattern of lights before we were stunned by a discovery on the beach.,1/17/2004,33.8075000,-78.7011111
10/10/2003 22:00,albuquerque,nm,us,light,180,3 minutes,Three bright lights that were huddled together than began to seperate and disappeared.,2/1/2007,35.0844444,-106.6505556
10/10/2003 23:00,bickerton (near wetherby) (uk/england),,,unknown,2700,45minutes,two bright&#44 but fuzzy lights going in a hovering circle about 200 yards of the ground&#44 with a grey cloud above them,10/15/2003,53.070884,-2.736506
10/10/2003 23:25,gleason,wi,us,sphere,1800,30min,UFO Contact&#44 Amazing close sighting,9/2/2005,45.3088889,-89.4963889
10/10/2004 02:50,mahwah,nj,us,triangle,180,2 - 3 minutes,Triangle shaped flying&#44 hovering U.F.O. witnessed over Sheraton Hotel in Mahwah&#44 NJ. on 10/10/04.,12/12/2011,41.0886111,-74.1441667
10/10/2004 03:30,worthington st. forest,nj,,other,2700,45 min,witnessed a large object and an intense red light that illumiated the object.,10/27/2004,40.058324,-74.405661
10/10/2004 03:50,portage la prairie (canada),mb,ca,changing,1200,20minutes,Series of Green Blue Red White lights spherical or triangular formation SE of Portage la Prairie&#44 Manitoba Canada,10/27/2004,49.966667,-98.3
10/10/2004 04:18,terre haute,in,us,sphere,5,5 seconds,silently&#44 it came over my head from behind; as I was laying on my back. About the size of a thumbnail at arms length&#44 was a lite white,10/27/2004,39.4666667,-87.4138889
10/10/2004 08:30,indianapolis,in,us,oval,15,15 seconds,((NUFORC Note:  Possible sighting of a contrail??  PD)),10/27/2004,39.7683333,-86.1580556
10/10/2004 09:45,nobel (canada),on,ca,unknown,300,5:00,Floating Red Object,10/27/2004,45.416667,-80.1
10/10/2004 14:00,morgantown,wv,us,circle,10,10 sec,Solid round silver ball passing over at about 3000MSL.,5/24/2005,39.6294444,-79.9561111
10/10/2004 15:00,berkeley,ca,us,unknown,180,3 minutes,While driving my car in the mid afternoon of a day in the fall of 2004 on HYW 580 East-bound I had just crossed the San Rafael / Richmo,5/24/2005,37.8716667,-122.2716667
10/10/2004 15:00,rock island,il,us,sphere,3600,1 hour,The sky was clear  and the objects at times appeared to rotate slowly.,10/27/2004,41.5094444,-90.5786111
10/10/2004 15:20,kedainiai (lithuania),,,oval,240,4min,6 oval light objects very quickly rounded under the dark cloud for a some minutes ((NUFORC Note:  Possible advertising lights??  PD)),10/27/2004,55.288131,23.957728
10/10/2004 19:00,chateauqua,ny,,formation,1200,20 min,4 bright circles in a half rainbow formation with a longer bright strip at the top of the formation,10/27/2004,42.209774,-79.466844
10/10/2004 19:00,ripley,ny,us,circle,900,15 min,7 red/orange stationary objects appeared over Lake Erie on 10/10/04 for 15 minutes and then all disappeared at once.,10/27/2004,42.2669444,-79.7108333
10/10/2004 21:00,faribault,mn,us,flash,900,1/2 hour,Metor or craft descending then sudden flash of light,10/27/2004,44.2950000,-93.2686111
10/10/2004 21:00,mansfield,oh,us,light,7200,a few hours,Several UFO&#39s&#44 one bigger one flew right over the car.,10/27/2004,40.7583333,-82.5155556
10/10/2004 22:00,columbia,mo,us,light,60,1 min,A light moved across the sky in a zig zag way then straightened out and went straight out into space in a matter of seconds.,11/28/2007,38.9516667,-92.3338889
10/10/2004 23:30,gleason,wi,us,sphere,3000,45-50 mins,It was about 9:30PM my friend and I were going to go out deer shining with my step dads truck and my friends spotlight. We left his hou,9/2/2005,45.3088889,-89.4963889
10/10/2005 07:40,seattle,wa,us,other,60,one + minutes,round symetrical with roundish flat bottom shiny white colored low flying bigger than  a plane.,10/11/2005,47.6063889,-122.3308333
10/10/2005 09:00,apache junction,az,us,other,30,30 seconds,half-moon shaped objects that just winked out,10/11/2005,33.4150000,-111.5488889
10/10/2005 09:30,north miami beach,fl,us,oval,1800,30 minutes,i sent you an e-mail 2 days ago and really want to be contacted&#44 PLEASE  contact me asap&#44 I&#39m not crazy and nether is my wife&#44 please c,10/20/2005,25.9327778,-80.1627778
10/10/2005 14:45,los angeles,ca,us,egg,10,10 seconds,Egg UFO over Hollywood Hills and LAX in LOS ANGELES&#44 CA.,10/20/2005,34.0522222,-118.2427778
10/10/2005 20:00,loretto,pa,us,triangle,300,5 minutes,Dull red flash&#44 Triangular ship&#44 Vocal Noises,10/30/2006,40.5030556,-78.6305556
10/10/2005 20:00,newtown (uk/wales),,gb,formation,360,5/6 minutes,red/orang lights dancing in the sky.,5/15/2006,52.516667,-3.3
10/10/2005 21:00,lewisburg,tn,us,unknown,240,4 minutes,Like a grouping of balloons with a slight glow to them,12/7/2006,35.4491667,-86.7888889
10/10/2005 21:30,north miami beach,fl,us,other,3600,60 min,a manta ray shaped object with orange and yellow lights flashing in,10/11/2005,25.9327778,-80.1627778
10/10/2005 22:08,east wenatchee,wa,us,light,1200,20 min,Strange light over East Wenatchee Washington,10/20/2005,47.4158333,-120.2919444
10/10/2005 23:00,hendersonville,nc,us,light,600,10 minutes,Last night&#44 October 10&#44 at about 11:00PM for about ten minutes I observed a peculiar point source light in the Eastern sky. It was at a,10/11/2005,35.3186111,-82.4611111
10/10/2005 23:07,brainerd,mn,us,disk,300,5 min.,A big lighted up silver saucer.,10/30/2006,46.3580556,-94.2005556
10/10/2006 01:00,pennington,tx,us,diamond,3600,one hour,IN form of diamond with multi colored lights that acted like disco light except one.  theone light was like a brite star and would resp,2/1/2007,31.1911111,-95.2352778
10/10/2006 05:00,san francisco,ca,us,triangle,600,10 minutes,black triangles were seen flying across the surface of the full moon,10/30/2006,37.7750000,-122.4183333
10/10/2006 12:37,blairsville,ga,us,unknown,10,<10 sec.,Intermittant streak by moon&#44 not seen on photo taken 10 seconds earlier.,10/30/2006,34.8761111,-83.9583333
10/10/2006 16:00,savannah,tn,us,light,600,10 minutes,weird light that moved in the sky,10/30/2006,35.2247222,-88.2491667
10/10/2006 16:00,waynesboro,va,us,triangle,600,8-10 minutes,Large...beautiful...and brighter than anything I&#39ve ever seen....How small I have felt since....,10/30/2006,38.0683333,-78.8897222
10/10/2006 19:00,unsure,ar,,fireball,2,a few seconds,Extreme sound with trails and orange red blue hues to it.  The trails were bright bright white.,12/7/2006,35.20105,-91.831833
10/10/2006 20:00,bray,ok,us,other,360,6 mins,Glowing V Shaped Object flying Low making no sound.,12/12/2009,34.6377778,-97.8172222
10/10/2006 21:47,plymouth (devonshire) (uk/england),,gb,formation,120,1-2 mins,they were right above me very small almost like minni stars and they were circling round sommothing and came closer and further away an,10/30/2006,50.396389,-4.138611
10/10/2006 22:40,waycross,ga,us,light,120,2 minutes,Redish orange light viewed from Waycross &#44Ga. Moving Northwest and suddenly just goes out.,10/30/2006,31.2133333,-82.3541667
10/10/2006 22:50,wolfforth,tx,us,disk,300,5 min,Huge aircraft with diagnally aligned white lights moving slowly and loudly through the night.,10/30/2006,33.5058333,-102.0086111
10/10/2006 23:00,lyndhurst,oh,us,unknown,300,5 minutes,This is a follow up to my Feb. 16th&#44 1995 report.  This past Tuesday&#44 my wife and I AGAIN heard the same loud&#44 rumbling roar that we he,10/30/2006,41.5200000,-81.4888889
10/10/2007 01:00,lebanon,or,us,light,14400,4 hours,Small Orange-White &quot;star&quot; that moves around in circles&#44 up&#44 down&#44 and sideways fast in the night sky,11/28/2007,44.5366667,-122.9058333
10/10/2007 01:00,stockbridge,ga,us,changing,3600,1 hour,i was abducted,11/28/2007,33.5441667,-84.2338889
10/10/2007 04:00,denver,co,us,changing,2700,45 minutes+,Huge lighted cluster in the eastern sky.  ((NUFORC Note:  Sighting of Venus.  PD)),11/28/2007,39.7391667,-104.9841667
10/10/2007 04:30,jacksonville,fl,us,sphere,30,30 seconds,half mile from de saint Jhons River&#44 low flying sphere&#44   at slow speed without noise,3/4/2008,30.3319444,-81.6558333
10/10/2007 06:00,indio,ca,us,oval,600,10 min.,Observed 2 white clouds of identical shape in clear blue shy with object becoming visible beneath one cloud.,6/9/2009,33.7205556,-116.2147222
10/10/2007 13:00,owego,ny,us,triangle,10800,3 hours,triangle with 3 llights blinking. 500 Lights On Object0: Yes,11/28/2007,42.1033333,-76.2625000
10/10/2007 18:33,downingtown,pa,us,circle,120,1 to 1 1/2 minutes,Star-like (but MUCH BRIGHTER AND LARGER) light west of D-town&#44 PA.  Seen against sunset.  ((NUFORC Note:  Contrail??  PD)),11/28/2007,40.0063889,-75.7036111
10/10/2007 19:00,austin,tx,us,flash,3,3 seconds,pulsing flash recurring at 2 second intervals 3 times along the same trajectory along 90 degrees of sky,11/28/2007,30.2669444,-97.7427778
10/10/2007 20:10,starrsville (covington),ga,us,sphere,60,appx. 1 minute,MUFON GEORGIA FOLLOW-UP REPORT:  Joint NUFORC-MUFON of Georgia Investigation-Fiery Sphere Shaped Object,6/12/2008,33.5394444,-83.8194444
10/10/2007 20:24,west palm beach florida,fl,,fireball,180,approx 3 mins,Burning ball across the sky over central/south florida. Strobing effect towards end of the final view of object.,11/28/2007,26.705621,-80.03643
10/10/2007 20:30,conyers,ga,us,unknown,3600,1 hour,Craft seen falling and dissapears into thin air.  ((NUFORC Note:  Missile launch??  We have no explanation for the aircraft.  PD)),11/28/2007,33.6675000,-84.0177778
10/10/2007 20:55,vero beach,fl,us,unknown,30,30 seconds,Shooting star without red globe burn-out or descent maintains steady Southerly trajectory.  ((NUFORC Note:  Missile launch??  PD)),11/28/2007,27.6383333,-80.3975000
10/10/2007 21:00,jensen beach,fl,us,oval,120,2 mins,A oval shaped object hovered and shot through the sky with very bright lights and then vanished. 500 Lights On Object0: Yes,11/28/2007,27.2541667,-80.2300000
10/10/2007 21:43,houston,tx,us,formation,35,35 seconds,Large Boomerang formation of lights over Houston&#44 Beltway 8 &amp; Westheimer moving north to south 10/10/07&#44 9:43 PM.,11/28/2007,29.7630556,-95.3630556
10/10/2007 22:00,duluth,mn,us,light,600,10 minutes,Bright pulsating light over lake superior.,1/21/2008,46.7833333,-92.1063889
10/10/2007 22:00,fleming,co,us,circle,600,10 minutes,UFO SPOTTED&#44 FLEMING COLORADO,11/28/2007,40.6800000,-102.8388889
10/10/2007 22:00,grove city,pa,us,unknown,3600,1:00:00,Light pattern moving silently through rapid maneuvers over Grove City,1/21/2008,41.1577778,-80.0888889
10/10/2007 22:00,van alstyne,tx,us,other,4,4 seconds,large mass of tiny lights all clustered together in the shape of a large boomerang over eastern sky in north Texas.,11/28/2007,33.4213889,-96.5769444
10/10/2007 23:05,northglenn,co,us,triangle,15,15 seconds,Hovering triangular shape seen with flashing lights seen in Colorado,11/28/2007,39.8855556,-104.9866667
10/10/2007 23:20,stord (norway),,,light,600,10 min,Thise could be an ETV case&#44 but it could also be helicopters or/and airplanes,1/21/2008,59.900209,5.282347
10/10/2008 02:00,london (canada),on,ca,other,120,2 min. approx,C shape with a T front over London ont on Oct 10&#44 2008 on a clear day around 2PM,6/9/2009,42.983333,-81.25
10/10/2008 02:00,north branch,mn,us,light,300,5 min,Lights at night&#44 shining into car and garage and around blinds,10/31/2008,45.5113889,-92.9800000
10/10/2008 02:00,slingerlands,ny,us,circle,240,4 min,Huge&#44 moon size&#44 orange&#44 bright&#44 almost complete circle,10/31/2008,42.6291667,-73.8650000
10/10/2008 04:00,carlin,nv,us,disk,600,10 mins,Ufo sighting in Carlin&#44 NV&#44 at the pilot truck stop. 500 Lights On Object0: Yes,7/19/2010,40.7138889,-116.1030556
10/10/2008 04:50,evansville,in,us,formation,600,10 minutes+,I saw a huge V-shaped object moving slowly and silently over the roof tops in my neighborhood.,10/31/2008,37.9747222,-87.5558333
10/10/2008 06:00,albany,ny,us,oval,45,45 seconds,I live Colonie&#44 New York&#44 a suburb of Albany.  I live within 4 miles of the Albany International Airport. Many  takeoff&#8217;s and landings,10/31/2008,42.6525000,-73.7566667
10/10/2008 10:22,fremont,ca,us,triangle,60,1 minute,I saw a brightly lightes v shaped ufo while driving through fremont&#44ca.,10/31/2008,37.5483333,-121.9875000
10/10/2008 18:00,yuma,az,us,triangle,900,15 minutes,Carousel in the sky on fire / pixalated triangle over Yuma&#44 AZ,10/10/2011,32.7252778,-114.6236111
10/10/2008 19:00,south bend,in,us,light,600,10 minutes,Glowing succession of flying objects on the horizon.,10/31/2008,41.6833333,-86.2500000
10/10/2008 20:00,la crescent,mn,us,formation,10,10 seconds,six strange lights in the sky over La Crescent MN,10/31/2008,43.8280556,-91.3038889
10/10/2008 20:00,moon township,pa,,unknown,120,2 minutes,unknown rectangular shaped aircraft with bright lights seen over Rt. 60 near Pittsburgh International Airport&#44 definitely NOT a plane,10/31/2008,40.516977,-80.221348
10/10/2008 20:00,philadelphia,pa,us,oval,60,1 minute,Silent&#44 oval&#44 bright white craft in yard.,7/4/2012,39.9522222,-75.1641667
10/10/2008 20:00,seattle,wa,us,light,180,3 minutes,Around 8:00 pm? I Went out side and looked up at the stars and I saw a light which I thought was a small faded star  until it started t,10/31/2008,47.6063889,-122.3308333
10/10/2008 20:40,pueblo,co,us,light,300,5 minutes,In the northwest sky&#44 there were about seven lights moving slowly and flashing in and out if an extremely strange fashion.,10/31/2008,38.2544444,-104.6086111
10/10/2008 21:30,cincinnati,oh,us,oval,900,15 minutes,12 ovel objects flying east to west orange and red at a slow speed then vanished,10/31/2008,39.1619444,-84.4569444
10/10/2008 22:00,san diego,ca,us,disk,30,30 seconds,low flying saucer in suburban area.  ((NUFORC Note:  Student report.  PD)),10/31/2008,32.7152778,-117.1563889
10/10/2008 22:30,madison,wi,us,circle,20,20 secounds,Tanslucent orange/yellow UFO in Madison WI,10/31/2008,43.0730556,-89.4011111
10/10/2008 23:15,coldwater,oh,us,sphere,60,1 minute,spherical in shape&#44 orange flames coming from the bottom&#44 completely silent&#44 moved fast and also hovered.,10/31/2008,40.4797222,-84.6283333
10/10/2009 12:00,crested butte,co,us,egg,60,1min,metallic egg shaped craft above crested butte&#44 CO.  Also have seen great amount of activity READ ME&#33,12/12/2009,38.8697222,-106.9872222
10/10/2009 12:42,tulsa,ok,us,unknown,6,6 seconds,In&#39t see nothing in the park,12/12/2009,36.1538889,-95.9925000
10/10/2009 16:24,eagar,az,us,unknown,180,2-3 minutes,Second sighting was only 150 feet away.  Observations between two sightings.,12/12/2011,34.1111111,-109.2908333
10/10/2009 19:30,suffolk,va,us,unknown,900,15 minutes,It looked sort of lime green.  It appeared to have an odd texture.  It had a dimples on its surface.  It was not smooth at all.  It jus,12/12/2009,36.7280556,-76.5838889
10/10/2009 20:30,anaheim,ca,us,light,300,5 mins,UFO over Disneyland.,12/12/2009,33.8352778,-117.9136111
10/10/2009 20:45,wilmington,nc,us,light,600,10minutes,Two lights seen with a lighting of something strobe like near the ground.,12/12/2009,34.2255556,-77.9450000
10/10/2009 21:00,leesburg,va,us,disk,300,less than 5 minutes,Two large glowing amber/dark orangish colored circular disks-not a sound-,11/21/2010,39.1155556,-77.5638889
10/10/2009 23:00,michigan city,in,us,changing,900,15 minutes,black object that seemed to impode into a sphere and vanish&#44 only to reappear in the same shape and move location,12/12/2009,41.7075000,-86.8950000
10/10/2009 23:23,cupertino,ca,us,light,180,3 minutes,Bright red light object made random moves horizontally and floated for a while and then went up vertically.,12/12/2009,37.3230556,-122.0311111
10/10/2010 01:00,orchard park,ny,us,light,7200,a few hours,Xmas colored rotating lights.  ((NUFORC Note:  Twinkling stars??  PD)),1/5/2011,42.7675000,-78.7441667
10/10/2010 02:30,harrisburg,pa,us,circle,240,4  minutes,possible UFO sighting,11/21/2010,40.2736111,-76.8847222
10/10/2010 03:00,euclid,oh,us,circle,180,3 minutes,2 objects blinking red and white&#44 disappeared into the sky&#44 after hovering around sky for 3 minutes.( over lake erie,11/21/2010,41.5930556,-81.5269444
10/10/2010 08:30,starr,sc,us,formation,600,5-10 mins,Strange orange lights in the night sky,11/21/2010,34.3769444,-82.6958333
10/10/2010 12:00,greenwich,ct,us,light,240,4 mins,&quot;Star&quot; like objects during clear day light in formation.,11/21/2010,41.0263889,-73.6288889
10/10/2010 13:00,north charleston,sc,us,light,180,3 minutes,Object(s) visible 3 times at same place in the sky at during day in Chas&#44 SC,7/4/2012,32.8544444,-79.9750000
10/10/2010 15:00,san francisco airport,ca,,triangle,300,5 min.,White or light grey colored and leaving red/orange contrails on a bright blue sky.,9/30/2013,37.615223,-122.389979
10/10/2010 16:30,springfield,va,us,cigar,15,15 secs,Metalic cigar shaped object sighted during lull in a storm in Springfield&#44 VA,11/21/2010,38.7891667,-77.1875000
10/10/2010 17:10,bridgeport,ct,us,light,600,five to ten minutes,Saw a light in the sky fading in and out over Bridgeport&#44 CT.,11/21/2010,41.1669444,-73.2052778
10/10/2010 18:30,clackamas,or,us,triangle,120,1-2minutes,triangular ufo sighting in oregon 10-10-10,11/21/2010,45.4077778,-122.5691667
10/10/2010 20:00,san angelo,tx,us,oval,60,1 minute,I was coming back from the grocery store around 8:30 pm when I noticed a large orange glowing object in the sky above my neighbors hous,11/21/2010,31.4636111,-100.4366667
10/10/2010 20:20,windsor,ct,us,fireball,5,5 seconds,Bus sized fireball object over 91 about 3-400 ft up going about 150 mph at a downward 20 degree angle.,5/2/2014,41.8525000,-72.6441667
10/10/2010 20:45,sterling,il,us,cylinder,600,10min,It had rows of white lights with red lights pulsating in between them,11/21/2010,41.7886111,-89.6961111
10/10/2010 21:00,everett,wa,us,other,30,30 seconds,crown shaped object with two orange lights over everett wa,11/21/2010,47.9791667,-122.2008333
10/10/2010 21:00,kykotsmovi,az,us,disk,7200,2 hours,We saw  what seem to be a space craft in the eastern sky of northern AZ&#44 on 10-10-10.,1/31/2011,35.8752778,-110.6197222
10/10/2010 21:30,albany,ny,us,circle,10,10 seconds,Circle of light SUNY Albany.,8/30/2013,42.6525000,-73.7566667
10/10/2010 22:30,garden grove,ca,us,egg,7200,2 hours,Blue Light in Garden Grove,11/21/2010,33.7738889,-117.9405556
10/10/2010 23:00,miami,fl,us,changing,1200,approx. 20 mins,Bright lights hovering and going in and out of orchestrated formations,11/21/2010,25.7738889,-80.1938889
10/10/2011 00:00,troy,ny,us,triangle,7200,2 hours,Red&#44 green &amp; orange blinking triangle formation.  ((NUFORC Note:  Probable sighting of a twinkling star&#44 possibly Sirius.  PD)),10/10/2011,42.7283333,-73.6922222
10/10/2011 01:00,farmington,nm,us,circle,300,5 minutes,Single reddish circle  in the sky that wasn&#39t jet nor satelitte,8/30/2013,36.7280556,-108.2180556
10/10/2011 02:00,prescott valley,az,us,other,300,hours,Craft boomerang shape.2:00am duration hours.  ((NUFORC Note:  Probable sighting of a twinkling star&#44 possibly Sirius.  PD)),10/10/2011,34.6100000,-112.3150000
10/10/2011 10:30,ashville,ny,us,circle,60,1 minute,Amber object in night sky during full moon&#44 or the day before full moon,10/19/2011,42.0963889,-79.3758333
10/10/2011 14:00,epsom (surrey) (uk/england),,gb,oval,300,5 mins,Flying beer barrel shaped metallic object,12/12/2011,51.316667,-.266667
10/10/2011 14:30,north kingstown,ri,us,oval,40,40 sec,Bright oval object in sky,10/25/2011,41.5500000,-71.4666667
10/10/2011 15:00,groton,ct,us,disk,5,less than 5 seconds,Small shiny object seen in sky while driving on clear day&#44 looked back for a 3rd time and it was gone.,10/10/2011,41.3500000,-72.0788889
10/10/2011 18:15,peabody-saugus,ma,,flash,2700,45 minutes,Flashing light in the sky as airplanes flew by.,10/19/2011,42.468164,-71.014118
10/10/2011 19:00,mechanicsville,va,us,light,300,5 minutes,Three orange lights flying in unison,10/19/2011,37.6086111,-77.3736111
10/10/2011 20:00,hamilton (canada),on,ca,flash,4,2-4 seconds,Strange flash in the sky,10/19/2011,43.25,-79.833333
10/10/2011 20:00,middletown,ct,us,fireball,1200,15-20 minutes,Fireball Spinning Orange UFO,10/19/2011,41.5622222,-72.6511111
10/10/2011 21:00,lakewood,oh,us,fireball,60,1 minute,Orange light flies overhead and turns black as it passed silently.,12/12/2011,41.4819444,-81.7983333
10/10/2011 21:00,york,pa,us,circle,15,15 seconds,BRIGHT LIT ORB SPEEDS ACROSS S.CENTRAL PA. SKY&#44 MAKING NO SOUND&#44 THEN DISAPPEARS,10/19/2011,39.9625000,-76.7280556
10/10/2011 21:55,north platte,ne,us,circle,3,3 seconds,Object over North Platte Nebraska,12/12/2011,41.1238889,-100.7650000
10/10/2011 23:00,waynesville,oh,us,triangle,90,1:30,Flying triangle by Waynesville&#44 Ohio,10/19/2011,39.5297222,-84.0866667
10/10/2012 10:15,bridgeport,ct,us,circle,630,10:30,A Bright light that is a UFO,10/30/2012,41.1669444,-73.2052778
10/10/2012 15:00,san francisco airport,ca,,triangle,300,5 minutes,San Francisco International Airport         afternoon      about  5minutes       super clear conditions,9/30/2013,37.615223,-122.389979
10/10/2012 18:56,san diego,ca,us,sphere,240,4 minutes,Single white light or craft passed over and very close to a commercial jet.  ((NUFORC Note:  Possibly the ISS?  PD)),10/30/2012,32.7152778,-117.1563889
10/10/2012 19:09,sterling heights,mi,us,oval,120,1-2 minutes,A black unknown craft is seen in the sky over Sterling Hts. Michigan,10/30/2012,42.5802778,-83.0302778
10/10/2012 19:40,syracuse,ny,us,light,900,15 minutes,Went to move my car to the other side of the road in the city of syracuse.  saw low flying lights moving east towards dowtown.,10/30/2012,43.0480556,-76.1477778
10/10/2012 19:45,syracuse,ny,us,circle,240,4 minutes,Bright orange circles going thru the sky in the same direction. Some were closer to each other.,10/30/2012,43.0480556,-76.1477778
10/10/2012 20:00,colorado springs,co,us,light,20,15 to 20 seconds,Bright zig zagging light in the sky above norad.,10/30/2012,38.8338889,-104.8208333
10/10/2012 20:00,moundville,al,us,changing,240,4 minutes,Orange fiery lighting objects changing locations.,10/30/2012,32.9975000,-87.6300000
10/10/2012 20:15,new york city (bronx),ny,us,disk,1800,30 minutes,A cloaked disk hovered three hundred feet above two apartment buildings in the Bronx&#44 for aproximately thirty minutes.,10/30/2012,40.7141667,-74.0063889
10/10/2012 20:17,mount albert (canada),on,,triangle,30,30 seconds,On Wednesday October 10 2012 at 8:17 pm in Mount Albert Ontario I saw a triangle shaped UFO. It had a single light on each point and it,10/30/2012,44.136076,-79.308339
10/10/2012 20:30,las cruces,nm,us,fireball,120,1-2 minutes,4 fireballs in sky side by side,10/30/2012,32.3122222,-106.7777778
10/10/2012 20:30,marion,il,us,light,240,2 to 4 minutes,I was leaving my friend&#39s house to go home.  My friend and her 3 1/2 year old daughter walked me to her front door when she noticed all,10/30/2012,37.7305556,-88.9330556
10/10/2012 20:30,san jose,ca,us,other,6,5-6 seconds,POSSIBLE ALIEN/HUMANOID SEEN RUNNING INTO HILLS,10/30/2012,37.3394444,-121.8938889
10/10/2012 20:45,phoenix,az,us,sphere,300,5 minutes,18 glowing UFOs seen over Phoenix  AZ tonight&#44 10/12/12 8:45PM,10/30/2012,33.4483333,-112.0733333
10/10/2012 20:48,yakima,wa,us,light,240,4 minutes,Noticed light in the N.E. section of the sky about 30 deg. up that did not move. About the size of Venus.  ((NUFORC Note:  Capella?  PD,10/30/2012,46.6022222,-120.5047222
10/10/2012 21:00,austin,tx,us,changing,1200,15-20 minutes,Spheres of light seen over the west campus area of austin which then broke apart and sped off in different directions.,12/20/2012,30.2669444,-97.7427778
10/10/2012 21:00,bean station,tn,us,cigar,180,3 minutes,Large cigar shaped flying about 800 feet high.  Huge square engines on back.,10/30/2012,36.3436111,-83.2841667
10/10/2012 21:00,rochester,wa,us,light,600,10 minutes,Fleet of red UFO&#39s emerging from Mt. Rainier.,11/19/2012,46.8219444,-123.0950000
10/10/2012 23:01,suffern,ny,us,cylinder,20,20 seconds +,UFO over Suffern NY,10/30/2012,41.1147222,-74.1500000
10/10/2012 23:20,rancho mirage,ca,us,rectangle,5,5 seconds,Flying red object over Rancho Mirage&#44 ca,10/30/2012,33.7397222,-116.4119444
10/10/2013 00:00,clifton,nj,,light,60,<1 minute,Bright light&#33&#33,10/14/2013,40.858433,-74.163755
10/10/2013 02:32,palm harbor,fl,us,chevron,5,5 seconds,Tracking north to south at apx 2500 ft. A very fast&#44 semi-transparent Chevron shape craft&#44 slightly larger than a commercial plane.,10/14/2013,28.0777778,-82.7638889
10/10/2013 05:00,aurburn,ky,,triangle,600,10 minutes,Three bright lights over field.,10/14/2013,36.864209,-86.710273
10/10/2013 17:00,st. louis county,mo,us,light,10800,2-3 hours,Hovering bright object moving slowly around St. Louis.,10/23/2013,38.6272222,-90.1977778
10/10/2013 17:10,ottawa (canada),on,ca,light,10,10 seconds,FATHER: My name is Eldon Trepanier&#44  and I assure you that the following statement is true.At approximately 5:10 pm&#44 I spotted a very b,10/14/2013,45.416667,-75.7
10/10/2013 19:00,rittman,oh,us,light,60,1 minute,Fast moving white light.,10/14/2013,40.9780556,-81.7822222
10/10/2013 19:15,harvey station (canada),nb,ca,light,120,2 minutes,Slow moving bright orange light.,10/23/2013,45.716667,-67
10/10/2013 19:20,essex junction,vt,us,light,120,2 minutes,Noiseless&#44 low flying&#44 white&#44 bright constant light.,10/14/2013,44.4905556,-73.1113889
10/10/2013 19:20,kenner,la,us,circle,600,10 minutes,2 circle lights moving erratically over Kenner&#44 La.,10/14/2013,29.9938889,-90.2416667
10/10/2013 20:00,drexel,oh,us,circle,300,5 minutes,Yellow/orange&#44 sphere/circle that flew across night sky &#44slow speeds then simply vanished &#44 had no blinking lights&#44 was not an airplane,10/14/2013,39.7463889,-84.2866667
10/10/2013 20:00,hudson,nh,us,light,5,5 seconds,White&#44 orb above the clouds moving very fast&#44 no flashing lights&#44 zoomed across the sky and disappeared out of sight.,10/14/2013,42.7647222,-71.4402778
10/10/2013 20:30,grand blanc,mi,us,light,1200,20 minutes,3 bright lights holding a vertical position over central Michigan&#44 USA.,10/14/2013,42.9275000,-83.6300000
10/10/2013 20:30,savage,mn,us,circle,60,1 minute,I saw a sphere shaped object flying east to west moving faster than any conventional aircraft was white to orange in color as it reache,10/14/2013,44.7791667,-93.3361111
10/10/2013 20:32,warren,mi,us,sphere,45,45 seconds,Three glowing reddish-orange spheres changing to white lights,10/14/2013,42.4775000,-83.0277778
10/10/2013 20:35,canton,mi,us,triangle,180,3 minutes,Black triangle aircraft with white lights on each point&#44 completely silent&#44 seen flying low SW to NE.,10/14/2013,42.3086111,-83.4822222
10/10/2013 21:17,lost creek,wv,us,triangle,45,45 seconds,Small triangle with 3 lights floating low over a field then slowly flying away.,10/14/2013,39.1611111,-80.3522222
10/10/2013 21:30,hudson,nh,us,light,1,1 second,Very white bright light moving fast inside clouds.,10/14/2013,42.7647222,-71.4402778
10/11/1973 16:45,jupiter,fl,us,egg,14400,possible 4 hrs.,EGG-SHAPED OBJECT EMITS LIGHT RAY AND PEOPLE LOSE 4 HOURS,7/11/2000,26.9338889,-80.0944444
10/11/1978 23:00,brighton,mi,us,circle,300,5 miniutes,round revolving lights reflecting on the fog,10/28/2002,42.5294444,-83.7802778
10/11/1987 21:30,minnetonka,mn,us,light,30,30 seconds,White light moves west to east&#44 suddenly stops&#44 then moves south at a high rate of speed.,10/14/2013,44.9133333,-93.5030556
10/11/1987 23:59,otto,mo,us,fireball,60,60 seconds,bright blue ball of light.,8/19/2000,38.3708333,-90.5002778
10/11/1989 21:00,kewanee,il,us,sphere,180,2 to 3 minutes,HBCCUFO CANADIAN REPORT:  Large glowing sphere was positioned almost directly overhead.,10/15/2003,41.2455556,-89.9247222
10/11/1989 21:00,kewanee,il,us,sphere,300,5 minutes,Reddish-orange sphere seen outside Kewanee&#44 IL,7/26/2002,41.2455556,-89.9247222
10/11/1992 10:00,albuquerque,nm,us,sphere,900,15 minutes,Six Spheres of light move into my vision over the 92 Albuquerque Balloon Fiesta&#44then vanish straight up.,3/6/2001,35.0844444,-106.6505556
10/11/1994 02:00,jackson,nj,us,triangle,300,5mins,triangle UFO in jackson NJ  Countyline 526   over the old fire station next to the trailer park,1/29/2002,39.7763889,-74.8627778
10/11/1994 04:00,riverside,ca,us,chevron,4,4 seconds,Double white lights in chevron shape flying north to south about the size of the constellation of the Pleades&#44 covered half the sky in,1/28/1999,33.9533333,-117.3952778
10/11/1996 22:00,damascus,va,us,light,60,60 sec.,1996 SIGHTING IN DAMASCUS&#44 VA. WHILE CAMPING IN THE CHEROKEE NATIONAL FOREST.,9/24/2003,36.6336111,-81.7838889
10/11/1997 22:00,hafnarfjordur (iceland),,,sphere,300,5 min,playing with a jet,6/12/2008,64.066667,-21.95
10/11/1998 02:15,montara,ca,us,other,3600,1 hour,Boomerang shaped lit up at the neds and center of the boomerang.,11/1/1998,37.5422222,-122.5150000
10/11/1998 14:05,vega baja (puerto rico),pr,us,cigar,120,2 minutes,I went out and saw this cigar shaped object&#44 high above&#44 about where the sun would be at 12 o&#39clock. I stared at it trying to identify,11/1/1998,18.4463889,-66.3880556
10/11/1998 14:30,mount carmel,tn,us,light,10,10 seconds,Bright shiny object splits in two and disappears above horizon.,11/1/1998,36.5452778,-82.6611111
10/11/1998 20:30,highland,in,us,sphere,14400,4 hrs +,Spherical.  Red&#44 yellow&#44 and green lights.  Below clouds&#44 yet very high up.,11/1/1998,39.7944444,-87.3958333
10/11/1998 22:40,bar harbor (bar island crossover),me,us,sphere,30,30 seconds,My friend Steven and I were crossing over to Bar Island at low tide when we witnesses a green spherical object crossing the sky at a gr,11/1/1998,44.3875000,-68.2044444
10/11/1998 22:45,elk grove,ca,us,fireball,4,4 seconds,Greenish blue fireball streaking across horizon,11/1/1998,38.4088889,-121.3705556
10/11/1999 00:15,montgomery,al,us,light,180,3 minutes,Bright light coming from back yard and a surreal sensation of forboding.,3/21/2003,32.3666667,-86.3000000
10/11/1999 04:30,los angeles,ca,us,light,300,5min,It was a large bright light sitting stationary in the sky. Within our atmosphere. Not a star. It did not move or change shape and was t,10/19/1999,34.0522222,-118.2427778
10/11/1999 06:10,somerset?,wi,,unknown,120,2 minutes,Huge pulsating red light over I-94.  High overhead&#44 moving east,10/19/1999,45.124411,-92.673537
10/11/1999 07:40,three rivers,mi,us,oval,600,10minuets,While dirving to work this monday morning the 11th of October I spotted two jets flying toward the horizion. Becouse of the rising sun,10/19/1999,41.9438889,-85.6325000
10/11/1999 09:10,canby,or,us,light,10,10 seconds,i saw bright light come out of clouds&#44 2 aircraft came from behind and appeared to shot at the light&#44 light went back into the clouds,10/19/1999,45.2630556,-122.6913889
10/11/1999 18:00,parry sound (near) (canada),on,ca,disk,6,6 seconds,A silvery disk shaped object&#44 flew over an aircraft&#44 then disappeared.,4/22/2003,45.333333,-80.033333
10/11/1999 20:15,portville,ny,us,oval,30,30 seconds,The object was just below the tree line. The object was light up by a yellowish light with blue lights.You could see the windows in it,10/19/1999,42.0386111,-78.3411111
10/11/1999 20:15,portville,ny,us,oval,30,30 seconds,Was oval shaped had different colored lights all the way around the center of the object. The top was yellowish with windows with light,10/19/1999,42.0386111,-78.3411111
10/11/1999 20:15,portville,ny,us,oval,60,1 minute,it was a beautiful oval shaped object that had huge windows lite with every color you can imagine.  we saw this object to the left of t,10/19/1999,42.0386111,-78.3411111
10/11/1999 20:15,portville,ny,us,oval,60,1 minute,oval shaped with colorful lights all around with huge windows lite up very colorful most beautiful thing in the sky. in valley area it,10/19/1999,42.0386111,-78.3411111
10/11/1999 20:35,kirbyville (due south of),mo,us,other,5400,1.5hours,About 2030 cst I noticed what apeared to be a &quot;tumbler&quot; a flashing satellite. After observing for approx.10 min. I realized that the ob,10/19/1999,36.6230556,-93.1638889
10/11/1999 21:00,winnemucca,nv,us,cigar,2,seconds,oblong&#44 extremely large and  bright object in sky&#44 going behind mountains. Object much larger than a meteorite.,10/19/1999,40.9730556,-117.7347222
10/11/1999 21:10,ashland,or,us,triangle,45,30-45 sec.,I was looking into the sky towards the high east watching what appeared to be a passenger jet cross the sky when my periphial vision ca,10/19/1999,42.1947222,-122.7083333
10/11/1999 21:30,augusta,ks,us,light,600,10 mins,Object was at 45 degrees above southern horizon. Being stationary for 5 mins. and then executed some right angle maneuvers. Focal dista,11/9/1999,37.6866667,-96.9763889
10/11/1999 21:30,montgomery,tx,us,light,3600,1hrs,Pinpoint of light travelled from east to west breifly then hovered for about an hour then disappeared.,10/19/1999,30.3880556,-95.6961111
10/11/1999 21:45,eureka springs,ar,us,light,900,15 min.,Bright light due south&#44 traveling east extremely slowly. Bright flash given off from object every 10 seconds&#44 with a dim flash every 3,11/2/1999,36.4011111,-93.7377778
10/11/1999 22:15,parker&#39s lake,ky,,disk,900,10-15 min,Flashing lights sighted out of my window,10/19/1999,37.704344,-88.426757
10/11/1999 22:30,addison (i-355 and us 20 (lake st.),il,us,disk,600,10 min,Saucer shaped object&#44with rows of red lights on bottom side; one white lighttop and bottom,11/9/1999,41.9316667,-87.9888889
10/11/2000 19:30,london (uk/england),,gb,diamond,3,3 seconds,Diamond shaped ufo seen pulsing for short time near London England,12/2/2000,51.514125,-.093689
10/11/2000 20:00,watertown,ny,us,light,30,30 seconds,Was looking at the near full moon with binoculars when a very bright round light appeared to the left of the moon. at arms lenght it wa,12/2/2000,43.9747222,-75.9111111
10/11/2000 22:00,elverta,ca,us,light,30,hours,White starlike lights in sky that blink red and blue and move erratically over Sacramento region.,12/2/2000,38.7138889,-121.4616667
10/11/2000 22:09,dolgellau (uk/wales),,gb,changing,240,3 or 4 minutes,How two became one.,12/20/2000,52.75,-3.883333
10/11/2000 23:30,whittier,ca,us,light,1500,20-25 mins,UFO ENCOUNTER LESS THAN 300 FEET,12/12/2011,33.9791667,-118.0319444
10/11/2001 01:00,somerset,wi,us,light,10800,3 hours+,My brother and I went outside to have a smoke and then noticed a moving&#44 multicolored light in the sky....,11/20/2001,45.1244444,-92.6733333
10/11/2001 02:15,fairbanks,ak,us,other,1800,30 minutes,It looked like a star but it would move and after a few seconds a red aura would appear around it and emit objects.,10/12/2001,64.8377778,-147.7163889
10/11/2001 05:15,denver,co,us,light,900,15 minutes,Odd Lights in Colorado Sky,10/12/2001,39.7391667,-104.9841667
10/11/2001 08:15,columbia,ms,us,teardrop,300,5 minutes,short vapotr looking teardropped object&#44 always beside the sun&#33&#33&#33noticed from 10/11-10/26/01,11/20/2001,31.2516667,-89.8375000
10/11/2001 20:35,grass valley,ca,us,triangle,60,1 minute,Three bright white lights in a row&#44 in the sky.,10/12/2001,39.2191667,-121.0600000
10/11/2001 23:49,lima,oh,us,teardrop,300,5 minutes,We saw three teardroped shaped crafts with slowy flashing lights moving very slow then taking off very rapidly.,10/12/2001,40.7425000,-84.1052778
10/11/2002 06:17,springfield,mo,us,fireball,6,6 seconds,bright green triangular object throwing sparks traveling extremely fast,10/15/2002,37.2152778,-93.2980556
10/11/2002 13:25,reno,nv,us,sphere,600,10 min,A small white sphere which stopped&#44 hovered for 5 minutes&#44 then took off and disapeared.,10/15/2002,39.5297222,-119.8127778
10/11/2002 16:15,randolph,ma,us,cylinder,300,5min,Daylight sighting of High Altitude Light,11/4/2002,42.1625000,-71.0416667
10/11/2002 20:36,dallas,tx,us,fireball,3,3 seconds,Meteor lights up the skies over Dallas&#44 crashes somehere to the south.,10/28/2002,32.7833333,-96.8000000
10/11/2003 00:20,austin,mn,us,circle,5,5 seconds,THE TWO WHITE ROUND OBJECTS FLEW SYNCHONIZED SIDE BY SIDE AND EVENTUALLY VEERED OFF MADE HALF A CIRCLE AND MERGED&#44 AND RE-ENTERED SPACE,10/15/2003,43.6666667,-92.9744444
10/11/2003 01:29,new york city (manhattan),ny,us,egg,120,2 minutes,object  discharged another&#44 flew at first low then went higher hovered around empire state building,4/16/2005,40.7141667,-74.0063889
10/11/2003 03:00,truckee,ca,us,sphere,3,2-3 secs,Round very light blue object goes behind a small mountain,10/15/2003,39.3280556,-120.1822222
10/11/2003 07:00,fort knox,ky,,fireball,3,2-3 seconds,i saw a large fireball falling to earth in the early morning hours on  Oct.11&#442003 in Kentucky,11/8/2003,37.916104,-85.956247
10/11/2003 11:32,newaygo,mi,us,circle,40,30-40 sec,Two fuzzy disks chaseing each other.,11/26/2003,43.4197222,-85.8000000
10/11/2003 13:00,nebraska (above?&#44 or above south dakota),ne,,cigar,2,seconds,rather large cigar shaped object photographed from airplane window,10/15/2003,41.492537,-99.901813
10/11/2003 19:05,placerville,ca,us,light,600,ten minutes,Unverified pair of bold star lights diminishing in perfect unison.,10/31/2003,38.7297222,-120.7975000
10/11/2003 20:00,frederick,co,us,unknown,10,10 seconds,Large flash outside the house rattling the windows with a low hum.,10/15/2003,40.0991667,-104.9366667
10/11/2003 20:30,bloomington,in,us,disk,180,3.minutes,Saucer shaped craft with kaleidoscope lights.,10/15/2003,39.1652778,-86.5263889
10/11/2003 22:40,independence,mo,us,chevron,600,10 minutes,UFO with black exhaust sighted in Independence&#44 MO Oct. 11&#44 2003,11/8/2003,39.0911111,-94.4152778
10/11/2004 01:00,honolulu,hi,us,triangle,3,2-3 seconds,3 trangular UFOs were spotted in a triangle formation for 3 seconds.,10/27/2004,21.3069444,-157.8583333
10/11/2004 02:37,los angeles,ca,us,rectangle,20,15-20 secs,Large&#44 rectangular&#44 pale green-blue object spotted at approx. 2:37 am&#44 10/11/04&#44 moving east over the San Fernando Valley.,10/27/2004,34.0522222,-118.2427778
10/11/2004 03:40,dallas,or,us,light,20,20 seconds,Very intense light&#44 shone through covered windows&#44 absolutely no sound&#44 felt presence before observing.,10/27/2004,44.9194444,-123.3158333
10/11/2004 04:15,pitman,nj,us,other,7200,2 hours,star-like light that bobbled side to side and up and down  ((NUFORC Note:  We suspect Venus.  PD)),10/27/2004,39.7327778,-75.1319444
10/11/2004 05:00,san jose,ca,us,light,15,12-15seconds,Light traveling at very high rate of speed across the morning sky.,10/27/2004,37.3394444,-121.8938889
10/11/2004 10:00,nuevo laredo (mexico),,,light,1200,20min,While I was driving I stopped at a traffic light and when I turned to wait for the green light&#44 I saw 11 bright lights in the sky,7/16/2006,27.477936,-99.549573
10/11/2004 11:00,salinas,ca,us,formation,2700,45 minutes,Large formation of UFO&#39s seen over south Salinas&#44 CA on Oct. 11&#44 2004&#44 in broad daylight.,10/27/2004,36.6777778,-121.6544444
10/11/2004 14:00,arroyo grande,ca,us,circle,60,1 minute,observed Angel Hair type UFO,12/14/2004,35.1186111,-120.5897222
10/11/2004 18:00,fresno,ca,us,rectangle,120,2 minutes,Rectangle over Fresno&#44 California.,11/11/2013,36.7477778,-119.7713889
10/11/2004 19:00,strongsvilles,oh,,light,5,5 seconds,neon green light or object traveled eastward then fell out of view&#44 no aircraft nearby,10/27/2004,41.314497,-81.83569
10/11/2004 22:29,laredo,tx,us,fireball,1351,22:31,Large flaming tail and eratic movement - sudden change of direction,12/3/2004,27.5061111,-99.5072222
10/11/2004 23:00,lake worth,fl,us,formation,7200,2 hours,Multiple formations viewed by three witnesses.,10/27/2004,26.6155556,-80.0572222
10/11/2004 23:15,williamsville,ny,us,light,540,9 minutes,Hovering light seen over Williamsville&#44 NY,10/27/2004,42.9638889,-78.7380556
10/11/2005 00:00,cannock (uk/england),,gb,formation,180,3 minutes,Formation spotted,10/20/2005,52.683333,-2.016667
10/11/2005 00:00,holiday,fl,us,light,180,ohrs,light dancing over holliday florda,10/20/2005,28.1875000,-82.7397222
10/11/2005 03:00,eagan,mn,us,circle,7200,2 hours plus,((NUFORC Note:  Possible star.  PD))  Bright colorfull glowing ball.,10/11/2005,44.8041667,-93.1666667
10/11/2005 16:00,canyonlands np,ut,,formation,600,10 minutes,((NUFORC Note:  Possible satellites.  PD))  Needles Outpost: I was admiring the stars I saw 3 moving objects&#44 all in a row.,10/20/2005,39.32098,-111.093731
10/11/2005 16:36,lake point,ut,us,light,720,about 12 mins,Lights near  Lake Point/Grantsville&#44 UT,10/20/2005,40.6808333,-112.2622222
10/11/2005 18:33,pearl harbor,hi,,light,2,2 seconds,Fast moving light in the sky South of Peal Harbor,10/20/2005,21.344507,-157.974891
10/11/2005 18:45,peoria,az,us,light,5400,90 minutes,Formation of amber lights over Tolleson&#44 AZ that flickered off and on for about 90 minutes.,10/20/2005,33.5805556,-112.2366667
10/11/2005 19:00,buckeye,az,us,formation,1800,30 minutes,two different multi-light configurations that changed position and appeared low in the sky south of Buckeye&#44 Arizona,10/20/2005,33.3702778,-112.5830556
10/11/2005 19:00,casa grande,az,us,light,1800,30 minutes,amber lights over I-10 near Casa Grande Az.,10/20/2005,32.8794444,-111.7566667
10/11/2005 19:30,tempe,az,us,triangle,3,~3 sec,3 light triangle stayed perfectly still and then shot off fter 3 seconds of stillness.,10/20/2005,33.4147222,-111.9086111
10/11/2005 19:45,mobile,al,us,light,1800,30 minutes?,((NUFORC Note:  Possible sighting of Mars.  PD))  Massive brilliant white light that just hung in the Southern sky.,10/20/2005,30.6941667,-88.0430556
10/11/2005 21:00,little ferry,nj,us,oval,300,5 min,oval sahped  the whole thing was lit up with a very bright white light&#44 huvered over the trees&#44disappeared,12/16/2005,40.8527778,-74.0425000
10/11/2005 21:00,wall lake,ia,us,light,10,10 seconds,strange shit in the sky in sac county iowa.,10/20/2005,42.2711111,-95.0927778
10/11/2005 21:50,rotherham (south yorkshire) (uk/england),,gb,oval,3600,1hr,A light it was a oval shape duration was 1hr,12/16/2005,53.433333,-1.35
10/11/2006 01:25,nashville,tn,us,disk,13,13 sec,Circle shaped solid white object flying through clouds.,10/30/2006,36.1658333,-86.7844444
10/11/2006 05:40,york,me,,disk,30,30 seconds,Illuminated but not shiny disc  with three large pulsing lights underside&#44 white to red&#44 following path along the Atlantic coastline.,10/30/2006,43.161748,-70.648258
10/11/2006 09:00,littlerock,ar,,oval,600,10 minutes,The first object was shaped like an oval and appeared coming out the southwest traveling in an eastern direction this object appeared t,10/30/2006,34.746481,-92.289595
10/11/2006 11:29,lynnwood,wa,us,unknown,120,a few minutes,I noticed a very white tail behind an object traveling north in the southern sky. It appeared to be very high and far away. The object,10/30/2006,47.8211111,-122.3138889
10/11/2006 19:00,monterey park,ca,us,fireball,120,1 -2 minutes,huge ball of fire hanging in the sky,12/7/2006,34.0625000,-118.1219444
10/11/2006 19:30,two harbors,mn,us,light,600,10 minutes,Northern Lights ?? Right&#33,12/7/2006,47.0227778,-91.6705556
10/11/2006 20:45,pensacola,fl,us,diamond,3600,1 hour,Six orange glowing diamond shaped objects in two separate clusters due east of Pensacola,10/30/2006,30.4211111,-87.2169444
10/11/2006 21:00,milton,fl,us,light,900,15 minutes,THE LIGHTS KEPT FLASHING AND MOVING AT VERY HIGH SPEEDS SHOWING UP THEN WOULD BE GONE IN AN INSTANT THEN FLYING SIDE WAYS UNLIKE ANY PL,10/30/2006,30.6322222,-87.0397222
10/11/2006 21:20,kidlington (uk/england),,gb,formation,5,5 sec,Shape of object wasn&#39t wisible. Light spots shine in triangular shape,10/30/2006,51.816667,-1.283333
10/11/2006 21:32,la crescenta,ca,us,circle,3,3 seconds,White light imploded,10/30/2006,34.2241667,-118.2391667
10/11/2006 22:00,enid,ok,us,light,60,about 1 minute,Fast moving ball of light speeds across the sky.,10/30/2006,36.3955556,-97.8780556
10/11/2006 23:00,pampa,tx,us,triangle,60,1 minute,Two triangular objects&#44 lit up by three main lights and other lights in between&#44 moving simotaniously to the East over Pampa Tx.,10/30/2006,35.5361111,-100.9594444
10/11/2006 24:00,rome,ny,us,oval,120,a min or two,I was walking from the garage to the house&#44I happen to look up at a plane I hurd over head&#44 a small private plane. There&#39s a small air,2/1/2007,43.2127778,-75.4561111
10/11/2007 04:40,melbourne,ky,us,oval,360,6 minutes,flashing lights spotted near Ohio River,11/28/2007,39.0297222,-84.3663889
10/11/2007 10:10,carlton,or,us,cylinder,900,15min,it was not anything thath we have,11/28/2007,45.2944444,-123.1752778
10/11/2007 16:00,clackamas,or,us,circle,900,15 minutes,Silver circular or sphere-like object flying parallel to I-205 in the Gladstone/Clackamas area.,11/28/2007,45.4077778,-122.5691667
10/11/2007 19:28,brassall (australia),,,unknown,3600,1 hour +,Accidentally photographed very strange UFO,11/28/2007,-27.597553,152.7455
10/11/2007 19:50,seattle,wa,us,triangle,10,10 seconds,I saw two orange colored lights&#44 close together but moving independently across the sky&#44 at high rate of speed. Then they disappeared.,11/28/2007,47.6063889,-122.3308333
10/11/2007 20:15,tega cay,sc,us,light,1800,30 minutes,Bright white light and then 2 blinking red lights in Western Sky,11/28/2007,35.0241667,-81.0280556
10/11/2007 20:30,gulf shores,al,us,disk,1800,30 min.,Brightly lighted Object appeared total of 6-8 times in different locations in night sky over ocean for few seconds and disappeared,11/28/2007,30.2458333,-87.7008333
10/11/2007 23:00,london (uk/england),,gb,unknown,300,5 minutes,Yellow lights in formation,3/4/2008,51.514125,-.093689
10/11/2008 00:00,klagenfurt (austria),,,chevron,60,1 minute,It came from the direction of the city&#44 when I stood on a hill in total darkness in the countryside. It was moving strangely&#44  not stra,3/19/2009,46.62794,14.30899
10/11/2008 04:30,brownsville,tx,us,disk,3,3 seconds,I saw a ufo for 3 seconds by my house.,10/31/2008,25.9013889,-97.4972222
10/11/2008 06:00,concord,ca,us,light,180,2-3 minutes,Very small lights&#44 very high. moved at great speed and cganged direction. Not aircraft.,10/31/2008,37.9780556,-122.0300000
10/11/2008 13:00,salisbury,nc,us,sphere,20,20 secounds,7 UNKOWN AIRBORN OBJECT&#39S SEEN OVER  SALISBURY NC..SEARCH GRID WITNESSED&#33&#33..,10/31/2008,35.6708333,-80.4744444
10/11/2008 17:30,bellmere (australia),,,cylinder,240,4 minutes,Very large long white cylinder object traveling high up and smoothly above storm clouds.,1/10/2009,-27.088079,152.928057
10/11/2008 19:00,bridgeport,ct,us,circle,7200,2 hours,I saw 6 glowing orbs lining up in different formations witin a 2 hour period over Long Island Sound.,10/31/2008,41.1669444,-73.2052778
10/11/2008 19:00,dover,md,us,sphere,7200,2 hours?,freinds and familes see UFO,10/31/2008,39.5122222,-76.7697222
10/11/2008 19:00,riverside,ca,us,light,60,1 min approx,Bright light moving from NW to SE,10/31/2008,33.9533333,-117.3952778
10/11/2008 19:30,naples,fl,us,triangle,30,30 seconds,A dark flying V.,10/31/2008,26.1416667,-81.7950000
10/11/2008 20:30,centerville,tx,us,light,900,15 minutes,MYSTERIOUS LIGHTS IN THE TEXAS SKY.,3/19/2009,31.2577778,-95.9780556
10/11/2008 20:30,villa park/lombard,il,,changing,300,5 minutes,Several Orange Lights Over Vila Park Lomabrd Areas 10-11-2008,3/19/2009,41.885738,-87.969213
10/11/2008 22:20,albuquerque,nm,us,fireball,120,2 minutes,Vehicle out of southern sky thought to be shooting star hovers over city.,10/31/2008,35.0844444,-106.6505556
10/11/2008 22:30,los angeles,ca,us,triangle,30,30 seconds,Large Triangle sighted over L.A,10/31/2008,34.0522222,-118.2427778
10/11/2009 00:00,sedro woolley,wa,,unknown,10,10 seconds,Unusaul flight charactoristics,12/12/2009,48.50389,-122.23611
10/11/2009 02:45,deer park,ny,us,other,10800,3 hrs,2 Bright Orange lights in the sky moving up&#44 down&#44 and circular motion with shooting streaking trail -looked like shooting star,12/12/2009,40.7616667,-73.3297222
10/11/2009 04:00,crisfield,md,us,light,600,5 to 10 min,A bright light moving across the sky getting closer stopped on a dime got brighter and took off with no sounds at all,12/12/2009,37.9833333,-75.8541667
10/11/2009 04:45,st. john&#39s (canada),nf,ca,flash,5,>5 seconds,Bending streak of white light over suburban area.,12/12/2009,47.55,-52.666667
10/11/2009 09:45,plymouth,mi,us,triangle,20,20 seconds,I was standing on a sidewalk near salem high school where i saw a triangular shaped craft slowly gliding right over my head. my mom jus,6/27/2011,42.3713889,-83.4702778
10/11/2009 12:30,glendale,az,us,egg,1200,20 minutes,2 eggshaped objects over Glendale Az. near stadium.,12/12/2009,33.5386111,-112.1852778
10/11/2009 18:00,louisville,ky,us,disk,120,several minutes,strange object photographed over Louisville&#44 Kentucky October 11&#44 2009,12/12/2009,38.2541667,-85.7594444
10/11/2009 18:05,west palm beach,fl,us,oval,3,3 seconds,At around 6pm (18:00 hours) I was outside in the backyard of my home with my Canon EOS Rebel XT digital camera taking photographs of na,12/12/2009,26.7052778,-80.0366667
10/11/2009 19:00,north smithfield,ri,us,circle,15,10 to 15 seconds,I was watching the sky like I always do on a clear night because you can always see what appear to be stars riding along the night sky.,12/12/2009,41.9666667,-71.5500000
10/11/2009 19:50,putnamville,in,us,flash,540,8 - 9 minutes,Two Hovering Aircraft Spotted Around a Strange Haze,12/12/2009,39.5741667,-86.8652778
10/11/2009 21:55,madison,wi,us,light,180,3 minutes,Amber orange light moving very slowly&#44 dimming out&#44 shooting away.,12/12/2009,43.0730556,-89.4011111
10/11/2010 00:30,redondo beach,ca,us,other,1200,20 min,three lights that changed colors rapidly suspended over the ocean that increased and decreased in intensity often,11/21/2010,33.8491667,-118.3875000
10/11/2010 04:00,moxee,wa,,rectangle,1,1 sec and 1 sec,bow shockwave with rectangle craft it was hyperfast,11/21/2010,46.553733,-120.383162
10/11/2010 04:50,albany,ny,us,oval,120,2 min,Oval metallic object,11/21/2010,42.6525000,-73.7566667
10/11/2010 06:20,west palm beach,fl,us,sphere,2400,40 min,Electrical Sphere shape morning sky over Palm Beach Florida,11/21/2010,26.7052778,-80.0366667
10/11/2010 12:30,orangevale,ca,us,changing,2700,about 45 min,slowmoveing  fire ball in sky,11/21/2010,38.6786111,-121.2247222
10/11/2010 19:40,cottage grove,mn,us,light,240,3-4 minutes,Craft with two white lights in Minneapolis Approach Pattern that moved down and not forward then disappered behind the tree line.,11/21/2010,44.8277778,-92.9436111
10/11/2010 20:50,glendora,ca,us,circle,60,1 min,I was north on a mountain facing south with my friend. We were star gazing and I looked up in the sky at about a 45 degree angle and sa,11/21/2010,34.1361111,-117.8644444
10/11/2010 20:53,ramona,ca,us,triangle,5,3-5 seconds,We believed this object to be an airplane on fire,11/21/2010,33.0416667,-116.8672222
10/11/2010 21:35,union city,ca,us,other,15,15 seconds,Opposing lights of amber that sliently crossed low in the sky.,11/21/2010,37.5958333,-122.0180556
10/11/2010 23:20,clinton township,mi,,fireball,15,15 seconds,Fireball lifted into the sky and dissipated into a cloud.,11/21/2010,42.586888,-82.919551
10/11/2011 03:15,omaha,il,us,chevron,120,2 min,I noticed the craft as it had just passed over Rt 1. i brought my semi to a stop and shut down the engine. the craft was very large&#44as,10/19/2011,37.8902778,-88.3030556
10/11/2011 08:40,henderson,nv,us,other,180,3 minutes,UFO Report:  Date: October 11th&#44 2011 Location: Las Vegas&#44 NV (near Henderson&#44 NV) Time: 8:40 A.M. Near Las Vegas Nevada&#44 I was out,10/19/2011,36.0397222,-114.9811111
10/11/2011 15:00,cedar city,ut,us,light,8,8 seconds,Bright&#44 white&#44 star-like UFO over Cedar City at 1500 on sunny day.,10/19/2011,37.6775000,-113.0611111
10/11/2011 19:40,des moines,ia,us,light,90,90 seconds,An unexplained&#44 unidentified flying object.,12/12/2011,41.6005556,-93.6088889
10/11/2011 19:42,new bedford,ma,us,circle,1800,30-minutes,At least 25 orange and red fireballs fly over New Bedford&#44 MA&#44 USA,12/12/2011,41.6361111,-70.9347222
10/11/2011 21:10,holden beach,nc,us,circle,30,30 seconds,6 orange balls of light over the Atlantic ocean.,10/19/2011,33.9133333,-78.3041667
10/11/2011 23:23,harrodsburg,ky,us,unknown,480,8 min,Unknown lights.,5/29/2012,37.7622222,-84.8433333
10/11/2012 01:00,worcester,ma,us,unknown,4,4 seconds,Big extremely bright white light hovering in sky,10/30/2012,42.2625000,-71.8027778
10/11/2012 02:45,watchung (was my perspective),nj,us,sphere,3600,1 hour about,Orange sphere moving in unbeliveable ways&#44&#44&#44another green spehere near by with rays emerging form it.  Bizarre,10/30/2012,40.6377778,-74.4513889
10/11/2012 04:00,tewksbury,ma,us,light,2,2 seconds,Huge white streaking object moving high rate of speeds in night sky,10/30/2012,42.6105556,-71.2347222
10/11/2012 07:00,bablyon,ny,,disk,120,2 minutes,Saw a object that was very odd in the sky over the ocean off fire island inlet&#33&#33,10/30/2012,40.695655,-73.325675
10/11/2012 08:00,angola,in,us,cigar,7200,2 hours,4 objects metalic reflecting from rising sun in the east&#44 then witnessed what looked to be 7 more objects in a straight line. Then hear,10/30/2012,41.6347222,-84.9994444
10/11/2012 19:30,arbutus,md,us,light,300,5 minutes,Moving star and strange man,10/30/2012,39.2544444,-76.7002778
10/11/2012 19:30,forty fort,pa,us,fireball,720,12 minutes,Slow moving bright light,10/30/2012,41.2788889,-75.8786111
10/11/2012 19:45,saratoga springs,ny,us,circle,300,5 minutes,Brightly lit object&#44 twice the size of a planet&#44  traversed the night sky&#44 dimmed&#44 and disappeared from view.((NUFORC Note:  ISS? PD)),10/30/2012,43.0830556,-73.7850000
10/11/2012 20:00,nanticoke,pa,us,diamond,60,~1 minute,UFO sighted over Nanticoke PA,10/30/2012,41.2052778,-76.0052778
10/11/2012 20:30,las cruces,nm,us,fireball,120,1-2 minutes,4 fireballs side by side,10/30/2012,32.3122222,-106.7777778
10/11/2012 20:42,ravensdale,wa,us,triangle,10,10 seconds,Driving on kent kangley road I observed a triangle arrangement of lights hovering about 100 feet off the ground.  The lights were multi,10/30/2012,47.3525000,-121.9825000
10/11/2012 21:00,levittown,pa,us,diamond,60,1 minute,About 9:00 pm&#44 Oct. 11&#44 2012&#44 driving home I first heard strange high-pitched siren-like sound&#44 and rolled down my window to hear what,10/30/2012,40.1550000,-74.8291667
10/11/2012 21:01,phoenix,az,us,sphere,30,30 seconds,10/11/12  Phoenix&#44 AZ  Sphere  30 sec   Yellowish-orange flashing sphere seen by myself        10/12/12,10/30/2012,33.4483333,-112.0733333
10/11/2012 22:15,blue island,il,us,circle,45,45 seconds,Red circular object surrounded by yellow glow flying w/no sound quickly coming out of east turning southbound,10/30/2012,41.6572222,-87.6800000
10/11/2013 01:00,saginaw,mi,us,chevron,4,4 seconds,10 or so dimly lit white lights in a large arrow shape formation moving at high rate of speed.,10/14/2013,43.4194444,-83.9508333
10/11/2013 03:00,hamilton (canada),on,ca,cylinder,3600,0300:0400,Enlarged still frame pics of the video show strage shapes and strange colors.,10/23/2013,43.25,-79.833333
10/11/2013 06:13,ankeny,ia,us,circle,120,2 minutes,Two slow moving star-like objects suddenly accelerated to light speed heading towards Jupiter,10/14/2013,41.7297222,-93.6055556
10/11/2013 09:05,palm beach gardens,fl,us,light,15,10-15 seconds,Five orange flying objects in the nights sky and no sound.,10/14/2013,26.8230556,-80.1388889
10/11/2013 16:01,pickering (canada),on,ca,circle,300,5 minutes,Glowing blue sphere in Ontario&#44 Canada.,1/30/2014,43.866667,-79.033333
10/11/2013 16:35,kalamazoo,mi,us,fireball,600,~10 minutes,Massive caravan of a hundred red/orange fireballs moving from west to east at a steady rate in formation for at least ten minutes.,10/14/2013,42.2916667,-85.5872222
10/11/2013 19:00,lawrence,ks,us,unknown,240,2-4 minutes,Silent blue and white lights of craft object change color&#44 approach myself and boyfriend&#44 before changing into buzzing&#44 everyday plane,10/14/2013,38.9716667,-95.2350000
10/11/2013 19:20,north cincinnati,oh,,fireball,600,10 minutes,Some sort of fireball came down from the sky very rapidly soon to turn into 3 flying disc that where lit up (clearly not stars) they se,10/14/2013,39.103118,-84.51202
10/11/2013 19:50,essex junction,vt,us,light,60,60 seconds,4 or 5 Orange Lights in Vermont Sky,10/14/2013,44.4905556,-73.1113889
10/11/2013 20:00,cincinnati,oh,us,circle,300,4-5 minutes,Glowing Orange Fireball/Lights Seen at Turpin HS Football Game.,2/21/2014,39.1619444,-84.4569444
10/11/2013 20:00,cincinnati,oh,us,fireball,240,4 minutes,Cincinnati fire ball in the sky?,10/14/2013,39.1619444,-84.4569444
10/11/2013 20:00,naples,fl,us,light,7200,few hours,Circle of Different color flashing light over gulf in naples,10/14/2013,26.1416667,-81.7950000
10/11/2013 20:15,bonaie,ga,,light,300,3-5 minutes,15-25 red/orange lights moving at a low altitude in the same pattern with no sound at all.,10/14/2013,32.543889,-83.596111
10/11/2013 20:15,cincinnati,oh,us,fireball,60,1 minute,3 fireball type objects close to downtown Cincinnati.,10/14/2013,39.1619444,-84.4569444
10/11/2013 20:15,union,ky,us,fireball,300,5 minutes,amber fireball descending&#44splits into 3 objects&#44stops&#44they hover above ground with erratic movements,10/23/2013,38.9458333,-84.6805556
10/11/2013 20:20,hubbardston,ma,us,fireball,60,1 minute,4 orange orbs zig zgging across the sky.  Quick movements forward and aft and side to side.,10/14/2013,42.4736111,-72.0066667
10/11/2013 20:45,covington,ga,us,light,300,5 minutes,Saw a bunch of low-altitude lights drifting overhead.,10/14/2013,33.5966667,-83.8602778
10/11/2013 21:00,drexel,oh,us,sphere,180,3 minutes,Blue white streak in sky&#44 2 orange orbs splitting. seems like it landed.,10/14/2013,39.7463889,-84.2866667
10/11/2013 21:00,fayetteville,ny,us,chevron,90,90 seconds,Brilliant slow moving light in fayetteville ny.,10/14/2013,43.0297222,-76.0047222
10/11/2013 22:00,jupiter,fl,us,light,900,15 minutes,Groups of glowing orange objects moving randomly from east to west over Jupiter Inlet area at approximately 10:00 pm Oct 11&#44 2013.,10/14/2013,26.9338889,-80.0944444
10/11/2013 22:00,melbourne,fl,us,sphere,300,5 minutes,At or around 22:00 hours my Mother called me outside to look at something My Father and I walked out the front door and observed a larg,10/14/2013,28.0833333,-80.6083333
10/11/2013 22:08,dresser,wi,us,sphere,60,1 minutes,Large Orange Sphere over Polk county Wisconsin.,10/14/2013,45.3561111,-92.6333333
10/11/2013 22:10,lombard,il,us,formation,60,1 minute,5-8 orange lights over suburban Chicago,10/14/2013,41.8800000,-88.0077778
10/11/2013 22:18,windsor (canada),on,ca,light,300,3-5 minutes,5 orange lights seen in sky over windsor.,10/14/2013,45.583333,-72
10/11/2013 23:00,north canton,oh,us,fireball,10,10 seconds,Fireball over the Strip.,10/14/2013,40.8758333,-81.4025000
10/11/2013 23:15,pinckney,mi,us,fireball,2,2 seconds,Large orange fireball observed over Hell&#44 Michigan&#44 traveling from due south to due north directly overhead.,10/14/2013,42.4566667,-83.9463889
10/12/1965 12:00,pittsburgh,pa,us,circle,120,2 minutes,Saucer observed about 500 feet up moving into clear blue sky and flying square corners.,8/7/2007,40.4405556,-79.9961111
10/12/1965 13:00,pittsburgh,pa,us,disk,60,1 minute,Low UFO sliding out of a cloud into clear blue sky.,2/14/2008,40.4405556,-79.9961111
10/12/1967 01:45,viet nam (jungles of),,,other,3600,1 hour,Lights in the Nam,12/3/2004,14.058324,108.277199
10/12/1971 22:00,menands (albany),ny,us,chevron,180,3 minutes,Large&#44 black&#44  &quot;boomerang&quot; shaped object gliding silently overhead.,5/15/2006,42.6919444,-73.7250000
10/12/1973 19:00,birmingham (just south of),al,us,disk,900,10-15 minutes,Glowing Green UFO seen by myself (mom) and my 4 children very low over our car on a Friday night in Alabama in 1973.,4/2/1999,33.5205556,-86.8025000
10/12/1975 01:00,perth (w. of; southern cross) (western australia),,au,fireball,900,15 minutes,fire ball and min min,6/18/2004,-31.95224,115.861397
10/12/1976 23:00,emporia,ks,us,disk,300,5 minutes,Disc hoovers over train and seems to x-ray it.,6/9/2009,38.4038889,-96.1813889
10/12/1978 21:00,dyersburg,tn,us,triangle,7200,2 hours,NW TN TRIANGLE.,9/9/2013,36.0344444,-89.3855556
10/12/1978 23:00,alpine,az,us,circle,7200,2 hours,DURING A HUNTING TRIP IN THE MOUNTAINS&#44WE MADE CAMP AND LATE THAT NIGHT I SAW THE FOLLOWING. A BRIGHT LIGHT THAT CAME FROM THE SOUTHEAS,8/30/2013,33.8480556,-109.1425000
10/12/1979 00:45,barnegat,nj,us,rectangle,900,15 min.,Iwitnessed one object moving east to west across Rt.539 4 mile north of Rt.72 near the Fire Tower. There were no cloud and the sky was,9/2/2005,39.7530556,-74.2233333
10/12/1982 05:30,pearlington,ms,us,light,20,20 seconds,While fishing on the east pearl river which seperates la./ms. north of i10 near stennis we saw a white round light just above the trees,12/12/2013,30.2463889,-89.6111111
10/12/1982 05:30,pearlington,ms,us,light,29,29 seconds,Round light which was observed going into space with moves and silence that we have never seen before.,12/12/2013,30.2463889,-89.6111111
10/12/1985 23:45,swansboro,nc,us,disk,300,23:45 - 23:50,My sister and I observed a disk for about 5 minutes hovering approximately 120 feet away.,12/2/2000,34.6875000,-77.1194444
10/12/1988 16:30,melbourne (vic&#44 australia),,au,cigar,900,15 min&#39s,Large cigar shaped craft&#44flying sideways&#44over bay&#44toward&#39s our car.,9/29/2004,-37.813938,144.963425
10/12/1994 11:55,schenectady,ny,us,other,120,a few minutes,I had just picked up my Daugther (2yrs old) from my Mother-in-Laws and was on my way home it was a clear cold crisp day with the leaves,4/1/2001,42.8141667,-73.9400000
10/12/1994 15:00,monticello,ky,us,chevron,120,1-2 minutes,Triangular/chevron small object with fixed lights at corner--very fast moving.,10/30/2006,36.8297222,-84.8491667
10/12/1994 21:00,okeechobee,fl,us,disk,120,unknown - hours,close encounter of the fifth kind - detailed information was given via ELF wave and four books written with schematics/drawnings.,1/24/2014,27.2436111,-80.8300000
10/12/1995 20:30,pueblo,co,us,triangle,10,10 sec.,3 Triangular craft passed directly overhead.  They were flying in a &quot;V&quot; formation at low altitude. There was no sound. These objects we,11/19/1998,38.2544444,-104.6086111
10/12/1997 10:30,poole (uk/england),,gb,other,60,1 minute,UFO Sighted in Poole&#44 Dorset England,3/19/2009,50.716667,-2
10/12/1997 18:30,huntington beach,ca,us,sphere,20,20 seconds,Sphere chased by Huntington Beach Helocopter,10/20/2005,33.6602778,-117.9983333
10/12/1997 19:00,white tank mountains,az,,light,1200,20 minutes,Saw bright light past mountains. Looked at it through binoculars. It was very large. Must have been 18 or 19 miles away. Due to it&#39s si,1/28/1999,33.539166,-112.558414
10/12/1997 21:51,kenner (34th st.),la,us,disk,1260,1:21min,two disk like objects passed over me and my mother  objevts seemed to be a couple of thousand feet overhead,6/2/1998,29.9938889,-90.2416667
10/12/1997 22:30,chicago,il,us,light,300,5 minutes,Me and my friend were driving back from a Cubs game and we saw a red light in the sky it was moving very fast&#44 then stopped&#44 went back,9/19/2002,41.8500000,-87.6500000
10/12/1997 23:00,franklin,nh,us,other,15,15 seconds,Round green ball-shaped object,8/16/2002,43.4441667,-71.6477778
10/12/1998 02:00,miami twp.,oh,,other,1200,20 min.,I work as a security officer and during my outside rounds I observed a white light in the northen sky.  The weather was partly cloudy a,2/16/1999,39.612875,-84.248952
10/12/1998 04:00,lincoln,ne,us,egg,11,11 sec,3 Lights not as egg shaped but close&#44 thumb nail. Flying in tryangle formation flew over for 7 seconds not to close but not far away. f,11/1/1998,40.8000000,-96.6666667
10/12/1998 07:00,murray,ut,us,light,300,5 min.,It was a red light in the north west sky. it rose very slowly for about three minetes and then droped down flashing red and white.To sl,11/19/1998,40.6669444,-111.8872222
10/12/1998 19:00,asheville,nc,us,fireball,1800,30min,A MOVING RED BALL OF LIGHT.,4/2/1999,35.6008333,-82.5541667
10/12/1998 19:00,asheville,nc,us,light,2400,40 min,Red light moved slowly over Asheville&#44 dogs acted is if they were in pain.,5/15/2006,35.6008333,-82.5541667
10/12/1999 01:30,missoula,mt,us,triangle,60,1 minute,Some of my friend and I were outside&#44 smoking when something flew over us. It looked like an airplane at first&#44 but it was to big&#44 and,11/23/1999,46.8722222,-113.9930556
10/12/1999 05:11,albany,or,us,fireball,120,2min,Two fireballs in northwest sky,10/19/1999,44.6366667,-123.1047222
10/12/1999 09:00,miami,ok,us,oval,120,2 minutes,Flock of Silver Ovalish Shaped Disk flying quickly through the daytime sky.,10/31/2008,36.8744444,-94.8772222
10/12/1999 10:30,jersey,nj,,disk,180,3 min,I was on my roof. look up i saw two gray disk like abjects . .no lights just at a dead stop.,7/5/2008,49.214439,-2.13125
10/12/1999 12:07,breezewood,pa,us,fireball,3600,1 hour,3 balls of light were in the sky. They were in a triangle formation&#44 I heard that it might have been one ship with three lights.,2/27/2000,39.9991667,-78.2388889
10/12/1999 17:15,scottsdale,az,us,cigar,600,10 minutes,I witnessed a extremely white bright cigar shaped light in the west/soutwestern sky&#44 low on the horizon. It moved slowly from south to,10/19/1999,33.5091667,-111.8983333
10/12/1999 20:00,palominas (near ft. huachuca),az,us,triangle,600,10 minutes,V shaped light pattern but craft was pyrymid shape and demention. Huge size of shopping mall made no sound&#44 escorted by 1/2 hours worth,10/19/1999,31.3797222,-110.1177778
10/12/1999 21:33,minnesota (central&#44 rural),mn,,chevron,90,90 seconds,observed two chevron crafts hovering 225 &amp; 300 feet. aprox. 500 feet from my location. They were directly to my west&#44 and also observed,10/19/1999,46.729553,-94.6859
10/12/1999 21:35,port townsend,wa,us,triangle,300,5 minutes,3 satellites forming a perfect isosceles triangle shape&#44 moving in complete unison from the NW to the SE and turning to the South.,10/19/1999,48.1172222,-122.7591667
10/12/1999 22:00,phoenix,az,us,fireball,600,10 minutes?,Phoenix police dept. helicopters (2) and crew observe orange fireball that circles their craft. Report at first denied by PPD then ackn,2/23/2000,33.4483333,-112.0733333
10/12/1999 22:15,tulsa,ok,us,other,30,30 seconds,It was maybe 500ft above me&#44 no lights&#44 traveling VERY slow&#44  and completely silent.,10/31/2008,36.1538889,-95.9925000
10/12/1999 23:00,little falls (north of),mn,us,formation,3600,1 hour,Two bright amber lights. About 300 to 500 feet up. One slightly lower.,11/17/1999,45.9763889,-94.3622222
10/12/1999 23:00,norwark,ct,,fireball,60,1 minute,I saw a white object shoot across the sky at about 50-100 feet high. Looked like a comet&#44 but was way to close to the ground and was tr,11/2/1999,41.117744,-73.408158
10/12/2000 08:00,breckenridge,tx,us,other,300,5 minutes,It was slow moving &#44no lights and totally silent and BIG.,4/27/2004,32.7555556,-98.9019444
10/12/2000 11:09,la serena (vi&ntilde;a del mar) (chile),,,formation,7620,127 m,I dont Write English But I Have a 3 Videos Bery high resolution My email victorvialt@123click.cl Chile Suth America,4/25/2002,-29.906301,-71.250204
10/12/2000 15:00,mountain city,tn,us,disk,30,30 seconds,Broad Daylight Flying Saucer,8/5/2001,36.4744444,-81.8050000
10/12/2000 17:40,new haven,wv,us,disk,6,6 seconds,Disk shaped object sited over Mason County W.V. traveling at high rate of speed.,12/2/2000,38.9863889,-81.9736111
10/12/2000 18:00,belmont,vt,us,cigar,600,10 minutes,The cigar shaped craft was hovering in the southwestern sky fairly close to the ground.  There were lights on it.  There was a bright &quot;,12/2/2000,43.4155556,-72.8227778
10/12/2000 18:45,gilbert/mesa/chandler,az,,light,2100,35 minutes,I watched it for 40 minutes&#44 with my Binoculars and someone on the phone&#44 letting me know I was not the only one&#33  This make twice now&#33,12/2/2000,33.348216,-111.789581
10/12/2000 18:59,gilbert,az,us,oval,1080,app 18 min,Bubba&#39s Back&#33,12/2/2000,33.3527778,-111.7883333
10/12/2000 19:00,gilbert,az,us,unknown,900,15 minutes,Bright red ball of light moving an easterly direction over Gilbert&#44 AZ,12/2/2000,33.3527778,-111.7883333
10/12/2000 19:30,tulsa,ok,us,fireball,60,approx 1 minute,Witnessed a pink fireball making small circles in the sky around 71st ST &amp; HWY 169. At first glance it appeared to be fireworks but the,12/2/2000,36.1538889,-95.9925000
10/12/2000 20:08,brixham&#44 devon (uk/england),,,light,600,10 minutes,Unusual lights which blink on and off&#44 before one disappears and one starts moving and flies across the horizon.,12/2/2000,50.39514,-3.513924
10/12/2000 21:30,buckeye,az,us,light,300,5 mins,i saw &quot;bubba &quot; in buckeye az  very red and very bright,11/20/2002,33.3702778,-112.5830556
10/12/2001 01:30,miami (kendall),fl,us,circle,1200,15-20 min,On Oct.12&#442001 at 1:30am&#44 I witnessed a dark disk over my neighborhood in Miami&#44Fl.,9/2/2005,25.7738889,-80.1938889
10/12/2001 05:30,miami,fl,us,disk,1200,hour or more,Craft hovered high in the atmosphere&#44 changed colors or flashed lights. Red&#44 White&#44 Green Moving so slightly,11/20/2001,25.7738889,-80.1938889
10/12/2001 15:40,denver,co,us,disk,120,2 minutes,As I was driving in my car on the way home from work&#44 I stopped at the red light turning west on Colfax Avenue.  I was on the intersect,11/20/2001,39.7391667,-104.9841667
10/12/2001 18:30,phoenix,az,us,formation,120,2 min,Cluster UFO over Phoenix AZ,11/20/2001,33.4483333,-112.0733333
10/12/2001 19:40,sainte-suzanne (near switzerland) (france),,,other,2,2 secondes,The craft was too dark&#44 but behind i have seen a long and large light blue flame&#44 and all disapeared after a zigzag of 2 sec. The direc,10/12/2001,48.097456,-0.349277
10/12/2001 20:30,cannock (uk/england),,gb,triangle,10,5-10 seconds,a triangular object moving in a southeasterly direction,11/20/2001,52.683333,-2.016667
10/12/2001 23:08,eagle river,ak,us,other,10,10 seconds,The stealth-shaped object was traveling at low altitude at a high speed with no sound and lights that flashed intermittently.,11/20/2001,61.3213889,-149.5677778
10/12/2002 11:00,san leandro,ca,us,disk,600,10 minutes,Bright white disk&#44 stationery for ten minutes&#44 and then in an instant disappeared completely.,10/28/2002,37.7250000,-122.1550000
10/12/2002 11:00,winfield,tx,us,circle,600,10 minutes,I seen a circular obect&#44 silver in color with no wings moving north to west at a rather fast speed.,10/28/2002,33.1672222,-95.1116667
10/12/2002 14:40,san francisco,ca,us,unknown,180,3min.,Air show to the northwest&#44 small metallic objects forming circle formations to the southeast 4th appeared out of nowhere.,10/15/2002,37.7750000,-122.4183333
10/12/2002 15:49,tinton falls,nj,us,light,900,10-15 minutes,I was looking at what was&#44 only an hour earlier&#44 CLEAR BLUE SKIES&#44 being filled up by what might be referred to as chemtrails. As I was,11/4/2002,40.3041667,-74.1008333
10/12/2002 18:00,prescott,az,us,formation,600,10 minutes,Large cluster of black baloons tehered together at 1500 ft heading SW,10/15/2002,34.5400000,-112.4677778
10/12/2002 19:10,renton,wa,us,disk,3,3 seconds,Fast-moving saucer-shaped white light,10/15/2002,47.4830556,-122.2158333
10/12/2002 19:13,australia (rural),,,other,420,7 minutes,This was a very close encounter with  unidentifiable flying phenomenon.,8/12/2008,-25.274398,133.775136
10/12/2002 19:30,rose lake,id,us,light,600,10 minutes,Strange sphere above north Idaho.,10/15/2002,47.5388889,-116.4708333
10/12/2002 19:45,rotherham (uk/england),,gb,light,120,2 minutes,Strange light in the sky,10/15/2002,53.433333,-1.35
10/12/2002 20:00,paris,tx,us,triangle,300,5 minutes,Triangle UFO with Blue/White lights,11/21/2010,33.6608333,-95.5552778
10/12/2002 20:10,boca raton,fl,us,light,300,hour and half,White Specks moving moving back and forth&#44 sometimes stopping.,10/15/2002,26.3583333,-80.0833333
10/12/2002 20:45,paris,tx,us,triangle,300,less than 5 minutes,Close encounter in Paris&#44 TX,12/23/2002,33.6608333,-95.5552778
10/12/2002 23:45,langley (canada),bc,ca,triangle,30,30 seconds,I went outside to have a cigarette pretty close to midnight on Oct. 12th&#44 2002.I star gaze on a regular basis. I live close to the Lang,10/28/2002,49.1,-122.65
10/12/2003 02:00,albany,ny,us,unknown,30,30 seconds,object emmited bright light then sped off in a flash.,11/26/2003,42.6525000,-73.7566667
10/12/2003 02:00,antioch,ca,us,circle,1500,25 minutes,Peculiar lights over the Antioch&#44 CA sky,10/31/2003,38.0050000,-121.8047222
10/12/2003 13:08,auburn,pa,us,fireball,600,10 minutes,bright red light,10/15/2003,40.5983333,-76.0936111
10/12/2003 18:25,rosamond,ca,us,other,480,8 minutes,Two Brilliant Star objects in twilight sky,10/15/2003,34.8641667,-118.1625000
10/12/2003 18:30,south bend,in,us,other,600,ten plus minutes,Orange Ball Joined By Second That Formed a Debris Field - Filmed,11/26/2003,41.6833333,-86.2500000
10/12/2003 18:35,reevesville,sc,us,other,900,12 to 15 mins.,october 12th sunday 2003   6:35pm.  /distorted airway/sky  perhaps portle 15/20feet high same width on our land facing westnorthwest,10/31/2003,33.2055556,-80.6480556
10/12/2003 21:15,pickering (canada),on,ca,circle,7200,a few hours,There were 4 sometimes 5 seperate crafts with one bright light each which was all you could see and  were changing formations.,1/17/2004,43.866667,-79.033333
10/12/2003 22:20,dallas,tx,us,sphere,300,5 minutes,Luminous translucent red sphere,10/31/2003,32.7833333,-96.8000000
10/12/2003 24:00,salatiga (indonesia),,,disk,22,22 seconds,UFO in Salatiga&#44Indonesia,10/31/2003,-7.33683,110.498817
10/12/2004 00:00,fort morgan,co,us,sphere,1500,25 min.,It was a sphere shaped object  with lights on it....it had left jet stream marks in the sky&#44then landed.,10/27/2004,40.2502778,-103.7994444
10/12/2004 00:00,tacoma,wa,us,formation,4,4 seconds,Three orange circles without depth&#44 quickly&#44 randomly and fluidly dancing in tight formation&#44 moving silently,9/2/2005,47.2530556,-122.4430556
10/12/2004 00:06,ripon,ca,us,other,5,4-5seconds,Looking up in Nother sky at 12:06am 10-12-04 I by myself seen a boomerang shaped object heading west. It passed over 90 dgrees in 4-5 s,10/27/2004,37.7416667,-121.1233333
10/12/2004 07:37,rockville,md,us,light,10,10 sec,it was not a satilite,2/24/2005,39.0838889,-77.1530556
10/12/2004 08:20,santa anna,ca,,cylinder,60,a minute or two,Lighted object sighted in broad daylight over Santa Anna Calif.,10/27/2004,33.745573,-117.867834
10/12/2004 12:55,utica,ny,us,light,45,45 sec,Two white lights&#44 two blue-green lights (1/2 the size of the former)&#44 all looked like stars visible in the daytime.,10/27/2004,43.1008333,-75.2330556
10/12/2004 14:00,hayward,ca,us,sphere,2700,45 minutes,More UFO&#39s in Hayward,10/27/2004,37.6688889,-122.0797222
10/12/2004 15:00,antibes (france),,,sphere,2700,45 minutes,Round sphere off the coast of southern France.,5/15/2013,43.580418,7.125102
10/12/2004 16:00,&iacute;safj&ouml;r&eth;ur (iceland),,,cylinder,900,15 min,Cylinder hiding from fighter jets in west Iceland,10/27/2004,66.075833,-23.126667
10/12/2004 20:01,miami,fl,us,light,60,less than 1 min,Glanced at aerial object tonight... thought to could have been a commercial jet&#44 but it was heading south from north&#44 from overhead to,10/27/2004,25.7738889,-80.1938889
10/12/2004 20:27,north port,fl,us,light,75,50-75 seconds,An  orange/yellow star-like cylinder with a hazy&#44 glow transited Florida from SSE to NNW at 30 elevation on 10/12/04 @2327 EDT,10/27/2004,27.0438889,-82.2361111
10/12/2004 21:10,belfair,wa,us,fireball,60,>1 min,Small Fireball moved from east to west over southern Hood Canal,10/27/2004,47.4508333,-122.8261111
10/12/2004 22:30,rocklin,ca,us,triangle,3600,1 hour,I first saw the object at about 10:30 last night.  It remained in one place.  ((NUFORC Note:  Possibly a twinkling star??  PD)),10/27/2004,38.7908333,-121.2347222
10/12/2005 00:00,bakersfield,ca,us,fireball,7200,2 + hours,((NUFORC Note:  Possible sighting of Mars.  PD))  Bright Star changes direction at high speeds.,10/20/2005,35.3733333,-119.0177778
10/12/2005 01:15,bossier city,la,us,oval,30,30 seconds,Very loud&#44 noisy craft&#44 intense orange-red color&#44 goes over my house in early a.m.,10/20/2005,32.5158333,-93.7319444
10/12/2005 02:05,longwood,fl,us,formation,20,20 seconds,Two glowing discs slowly glide accross Longwood FL night sky.,10/20/2005,28.7027778,-81.3386111
10/12/2005 04:00,farmland,in,us,light,600,10 minutes,Bright&#44 pulsating light in night sky,10/20/2005,40.1877778,-85.1275000
10/12/2005 13:06,richmond hill (canada),,ca,circle,3,3 seconds,The flything ubject came out of the clouds&#44&#44&#44 and stayed there for about 5 - 10 seconds and it sudenly moved to the right hand side by,11/3/2005,43.866667,-79.433333
10/12/2005 17:00,noblesville,in,us,light,10,10 seconds,yellow light moving in wierd patterns and disappeared over noblesville&#44 indiana.,2/14/2006,40.0455556,-86.0086111
10/12/2005 19:35,gurgaon (india),,,oval,420,5-7 minutes,Blue oval ball over Gurgaon sky line,10/20/2005,28.459497,77.026638
10/12/2005 20:02,phoenix,az,us,light,300,5 minutes,Yellow Lights seen over South Mountain,10/20/2005,33.4483333,-112.0733333
10/12/2005 20:05,mesa,az,us,sphere,180,3 minutes,Phoenix Lights are Back&#33,10/20/2005,33.4222222,-111.8219444
10/12/2005 20:32,peoria,az,us,triangle,240,4 minutes,Many sightings of 12 orange lights&#44 bouncing + pattern formation&#44 high rate of acceleration 8:34 PM on 10/12/05,10/20/2005,33.5805556,-112.2366667
10/12/2005 21:00,georgetown,tx,us,changing,7200,2 hours,((NUFORC Note:  Possible twinkling stars?  PD)) Four objects with red/orange &amp; green flashing lights sighted near Florence/Killeen&#44TX..,10/20/2005,30.6325000,-97.6769444
10/12/2005 22:00,san jose,ca,us,unknown,300,5 minutes,Possible Chinese Spacecraft Launch??,10/20/2005,37.3394444,-121.8938889
10/12/2006 01:23,cornwall (canada),on,ca,sphere,1620,27 minutes,Floating red object over local baseball field.,10/8/2007,46.24,-63.21
10/12/2006 17:30,seekonk,ma,us,formation,300,4-5 minutes,Ufo&#44 massachusetts&#44 circular&#44 discs&#44 formation&#44 triangle,10/30/2006,41.8083333,-71.3375000
